osm_id,name,type,light_pol,lat,lng
"-1",Twin River Heritage Rangeland Natural Area,leisure-nature_reserve,0.1062848963,49.156561,-112.327854
"-1",Maybelle River Wildland Provincial Park,leisure-nature_reserve,0.0000000000,58.223699,-110.827307
"-1",Elk Lakes Provincial Park,leisure-nature_reserve,0.1373856709,50.480663,-115.089078
"-1",Height of the Rockies Provincial Park,leisure-nature_reserve,0.1494692950,50.490050,-115.229952
"-1",Mount Robson Provincial Park,leisure-nature_reserve,0.0000000000,52.927069,-118.832822
"-1",Edmonton and Area Land Trust - Pipestone Creek,leisure-nature_reserve,0.0000000000,53.015524,-113.250418
"-1",Poacher's Landing Provincial Recreation Area,leisure-nature_reserve,0.0000000000,54.955707,-112.873403
"-1",Golden Ranches Conservation Site,leisure-nature_reserve,0.0000000000,53.438607,-112.954159
"-1",Ministik Lake Game Bird Sanctuary,leisure-nature_reserve,0.0000000000,53.323195,-112.990447
"-1",Whitemud River Uplands,leisure-nature_reserve,0.0000000000,56.459923,-117.551459
"-1",Blue Rapids Provincial Recreation Area,leisure-nature_reserve,0.0000000000,53.130458,-114.969653
"-1",Brazeau Reservoir Provincial Recreation Area,leisure-nature_reserve,0.0000000000,52.963319,-115.588315
"-1",Eagle Point Provincial Park,leisure-nature_reserve,0.0000000000,53.260383,-114.873684
"-1",Rocky Mountain House Natural Area,leisure-nature_reserve,0.0000000000,52.413546,-114.974593
"-1",Clear Lake Natural Area,leisure-nature_reserve,0.0000000000,54.234214,-114.792037
"-1",Fort Assiniboine Sandhills Wildland Provincial Park,leisure-nature_reserve,0.0000000000,54.389225,-114.607606
"-1",Hubert Lake Wildland Provincial Park,leisure-nature_reserve,0.0000000000,54.559660,-114.243081
"-1",Paddle River Dam Provincial Recreation Area,leisure-nature_reserve,0.0000000000,53.894456,-115.060826
"-1",Roselea Natural Area,leisure-nature_reserve,0.0000000000,54.086640,-114.714449
"-1",Thunder Lake Provincial Park,leisure-nature_reserve,0.0000000000,54.131941,-114.725883
"-1",Whitecourt Mountain Natural Area,leisure-nature_reserve,0.0000000000,54.030609,-115.717687
"-1",Brazeau Canyon Wildland Provincial Park,leisure-nature_reserve,0.0000000000,52.810138,-116.773758
"-1",Brazeau River Provincial Recreation Area,leisure-nature_reserve,0.0000000000,52.878969,-116.555947
"-1",Marshybank Ecological Reserve,leisure-nature_reserve,0.0000000000,52.785077,-116.764695
"-1",McLeod River Provincial Recreation Area,leisure-nature_reserve,0.0000000000,53.298017,-117.276255
"-1",Obed Lake Provincial Park,leisure-nature_reserve,0.0000000000,53.565751,-117.097771
"-1",Sundance Provincial Park,leisure-nature_reserve,0.0000000000,53.675550,-116.925288
"-1",Wildhorse Lake Provincial Recreation Area,leisure-nature_reserve,0.0000000000,53.278605,-117.784054
"-1",William A. Switzer Provincial Park,leisure-nature_reserve,0.0000000000,53.491135,-117.803145
"-1",Yates Natural Area,leisure-nature_reserve,0.0000000000,53.602990,-116.279888
"-1",Cold Lake Provincial Park,leisure-nature_reserve,0.0000000000,54.605062,-110.073324
"-1",English Bay Provincial Recreation Area,leisure-nature_reserve,0.0000000000,54.577112,-110.218295
"-1",French Bay Provincial Recreation Area,leisure-nature_reserve,0.0000000000,54.434886,-110.026565
"-1",Bellis North Natural Area,leisure-nature_reserve,0.0000000000,54.132915,-112.199104
"-1",Franchere Bay Provincial Recreation Area,leisure-nature_reserve,0.0000000000,54.255596,-111.007546
"-1",Garner Lake Provincial Park,leisure-nature_reserve,0.0000000000,54.183323,-111.744385
"-1",Kehiwin Provincial Recreation Area,leisure-nature_reserve,0.0000000000,54.036867,-110.904019
"-1",Moose Lake Provincial Park,leisure-nature_reserve,0.0000000000,54.273017,-110.931001
"-1",Muriel Lake Provincial Recreation Area,leisure-nature_reserve,0.0000000000,54.147267,-110.746631
"-1",Upper Mann Lake Natural Area,leisure-nature_reserve,0.0000000000,54.143307,-111.504317
"-1",Victoria Settlement Natural Area,leisure-nature_reserve,0.0000000000,54.032963,-112.366575
"-1",Ghost Airstrip Provincial Recreation Area,leisure-nature_reserve,0.0000000000,51.395495,-115.027091
"-1",Red Deer River Provincial Recreation Area,leisure-nature_reserve,0.0000000000,51.651018,-115.279101
"-1",Don Getty Wildland Provincial Park,leisure-nature_reserve,0.0600711667,50.893967,-114.994253
"-1",Bow Valley Wildland Provincial Park,leisure-nature_reserve,0.0000000000,51.032476,-115.256283
"-1",Canmore Nordic Centre Provincial Park,leisure-nature_reserve,0.0000000000,51.096773,-115.392856
"-1",Bow Valley Provincial Park,leisure-nature_reserve,0.0000000000,51.050582,-115.072396
"-1",Bow Valley Provincial Recreation Area,leisure-nature_reserve,0.0000000000,51.054061,-115.145878
"-1",Elbow-Sheep Wildland Provincial Park,leisure-nature_reserve,0.1158054092,50.707449,-114.941576
"-1",Bluerock Wildland Provincial Park,leisure-nature_reserve,0.1081972425,50.642403,-114.654289
"-1",Sheep River Provincial Park,leisure-nature_reserve,0.0784105961,50.647183,-114.660518
"-1",Spray Valley Provincial Park,leisure-nature_reserve,0.0624292579,50.889099,-115.295301
"-1",Peter Lougheed Provincial Park,leisure-nature_reserve,0.1620534532,50.684281,-115.184840
"-1",Bragg Creek Provincial Park,leisure-nature_reserve,0.0000000000,50.939638,-114.583396
"-1",Elbow Falls Provincial Recreation Area,leisure-nature_reserve,0.0000000000,50.865449,-114.784970
"-1",Moose Mountain Trailhead Provincial Recreation Area,leisure-nature_reserve,0.0000000000,50.913977,-114.780467
"-1",Elbow River Provincial Recreation Area,leisure-nature_reserve,0.0000000000,50.884162,-114.706875
"-1",Ole Buck Mountain Natural Area,leisure-nature_reserve,0.0000000000,51.106211,-114.809496
"-1",Evan-Thomas Provincial Recreation Area,leisure-nature_reserve,0.0000000000,50.933306,-115.156346
"-1",Bob Creek Wildland Provincial Park,leisure-nature_reserve,0.0804844059,49.975246,-114.281482
"-1",Oldman River North Provincial Recreation Area,leisure-nature_reserve,0.0437203271,49.949976,-114.440138
"-1",Banff National Park,leisure-nature_reserve,0.0044512814,51.543010,-116.123706
"-1",Ghost River Wilderness Area,leisure-nature_reserve,0.0000000000,51.353253,-115.397184
"-1",Ghost Reservoir Provincial Recreation Area,leisure-nature_reserve,0.0000000000,51.220740,-114.719147
"-1",Big Hill Springs Provincial Park,leisure-nature_reserve,0.0000000000,51.251711,-114.387729
"-1",Glenbow Ranch Provincial Park,leisure-nature_reserve,0.0000000000,51.163254,-114.372205
"-1",Highwood River Natural Area,leisure-nature_reserve,0.0000000000,50.818285,-113.781818
"-1",Wyndham-Carseland Provincial Park,leisure-nature_reserve,0.1135294106,50.827798,-113.436724
"-1",Threepoint Creek Natural Area,leisure-nature_reserve,0.0474999994,50.734378,-114.192424
"-1",Plateau Mountain Ecological Reserve,leisure-nature_reserve,0.0988461540,50.226427,-114.521423
"-1",Cataract Creek Provincial Recreation Area,leisure-nature_reserve,0.0249999999,50.287230,-114.582770
"-1",Indian Graves Provincial Recreation Area,leisure-nature_reserve,0.1031227731,50.241751,-114.362287
"-1",Island Lake Provincial Recreation Area,leisure-nature_reserve,0.1734457461,49.629395,-114.673131
"-1",Oldman Dam Provincial Recreation Area,leisure-nature_reserve,0.1606086957,49.584188,-113.983794
"-1",Lundbreck Falls Provincial Recreation Area,leisure-nature_reserve,0.3581192229,49.585936,-114.199879
"-1",Lynx Creek Provincial Recreation Area,leisure-nature_reserve,0.0933333337,49.452744,-114.412544
"-1",West Castle Wetlands Ecological Reserve,leisure-nature_reserve,0.2514285743,49.328850,-114.413327
"-1",Little Bow Provincial Park,leisure-nature_reserve,0.1916666677,50.231201,-112.928024
"-1",Little Bow Reservoir Provincial Recreation Area,leisure-nature_reserve,0.1649999991,50.194155,-112.657368
"-1",Park Lake Provincial Park,leisure-nature_reserve,0.4071428563,49.806622,-112.924691
"-1",St. Mary Reservoir Provincial Recreation Area,leisure-nature_reserve,0.1237499975,49.345412,-113.136161
"-1",Jensen Reservoir Provincial Recreation Area,leisure-nature_reserve,0.1357238219,49.329466,-112.896822
"-1",Woolford Provincial Park,leisure-nature_reserve,0.1466666708,49.178736,-113.190471
"-1",Police Outpost Provincial Park,leisure-nature_reserve,0.1035714293,49.004547,-113.464958
"-1",Payne Lake Provincial Recreation Area,leisure-nature_reserve,0.1271169510,49.104373,-113.638557
"-1",Twin River Heritage Rangeland Natural Area,leisure-nature_reserve,0.1062607451,49.156558,-112.328059
"-1",Writing-on-Stone Provincial Park,leisure-nature_reserve,0.0773333333,49.077503,-111.698948
"-1",Milk River Natural Area,leisure-nature_reserve,0.0812030074,49.042530,-110.702702
"-1",Onefour Heritage Rangeland Natural Area,leisure-nature_reserve,0.1134889757,49.078008,-110.463137
"-1",Kootenay Plains Ecological Reserve,leisure-nature_reserve,0.0000000000,52.039632,-116.408836
"-1",Siffleur Wilderness Area,leisure-nature_reserve,0.0000000000,51.899750,-116.392310
"-1",White Goat Wilderness Area,leisure-nature_reserve,0.0000000000,52.225639,-116.852258
"-1",Waterton Lakes National Park,leisure-nature_reserve,0.1494524009,49.081333,-113.933172
"-1",Willmore Wilderness Park,leisure-nature_reserve,0.0000000000,53.647502,-119.187583
"-1",Kakwa Wildland Provincial Park,leisure-nature_reserve,0.0000000000,54.034466,-119.810860
"-1",Jasper National Park,leisure-nature_reserve,0.0000000000,52.851353,-117.983639
"-1",Butcher Creek Natural Area,leisure-nature_reserve,0.0000000000,51.976241,-114.410284
"-1",Chedderville Natural Area,leisure-nature_reserve,0.0000000000,52.185430,-114.757083
"-1",Cow Lake Natural Area,leisure-nature_reserve,0.0000000000,52.293479,-115.049204
"-1",Gleniffer Reservoir Provincial Recreation Area,leisure-nature_reserve,0.0000000000,52.030021,-114.263488
"-1",North Ram River Provincial Recreation Area,leisure-nature_reserve,0.0000000000,52.281962,-116.001206
"-1",Schrader Creek - Red Deer River Natural Area,leisure-nature_reserve,0.0000000000,51.957300,-114.436040
"-1",Alsike Bat Lake Natural Area,leisure-nature_reserve,0.0000000000,53.221506,-114.513112
"-1",Aspen Beach Provincial Park,leisure-nature_reserve,0.0000000000,52.460119,-113.980211
"-1",Buck Lake Natural Area,leisure-nature_reserve,0.0000000000,53.000161,-114.757780
"-1",Burtonsville Island Natural Area,leisure-nature_reserve,0.0000000000,53.320729,-114.526171
"-1",Crimson Lake Provincial Park,leisure-nature_reserve,0.0000000000,52.466415,-115.046855
"-1",Medicine Lake Provincial Recreation Area,leisure-nature_reserve,0.0000000000,52.750876,-114.743256
"-1",Modeste Creek Natural Area,leisure-nature_reserve,0.0000000000,53.237280,-114.694399
"-1",Modeste Saskatchewan Natural Area,leisure-nature_reserve,0.0000000000,53.308864,-114.644255
"-1",Poplar Creek Natural Area,leisure-nature_reserve,0.0000000000,53.121776,-114.648994
"-1",Washout Creek Natural Area,leisure-nature_reserve,0.0000000000,53.011118,-114.955873
"-1",Dry Island Buffalo Jump Provincial Park,leisure-nature_reserve,0.0000000000,51.928188,-112.969622
"-1",Rumsey Natural Area,leisure-nature_reserve,0.0791281603,51.856940,-112.620356
"-1",Tolman Badlands Heritage Rangeland Natural Area,leisure-nature_reserve,0.0029534884,51.856882,-112.962067
"-1",Sulphur Gates Provincial Recreation Area,leisure-nature_reserve,0.0000000000,53.871206,-119.187541
"-1",Waskahigan River Provincial Recreation Area,leisure-nature_reserve,0.0000000000,54.755440,-117.198601
"-1",Rock Lake - Solomon Creek Wildland Provincial Park,leisure-nature_reserve,0.0000000000,53.416155,-118.121761
"-1",Chinchaga Wildland Provincial Park,leisure-nature_reserve,0.0000000000,57.162324,-119.582509
"-1",Dunvegan West Wildland Provincial Park,leisure-nature_reserve,0.0000000000,56.092160,-119.303554
"-1",Greene Valley Provincial Park,leisure-nature_reserve,0.0000000000,56.142973,-117.242831
"-1",Hay-Zama Wildland Provincial Park,leisure-nature_reserve,0.0000000000,58.775794,-119.014605
"-1",Moonshine Lake Provincial Park,leisure-nature_reserve,0.0000000000,55.883658,-119.218344
"-1",Notikewin Provincial Park,leisure-nature_reserve,0.0000000000,57.217858,-117.147938
"-1",Peace River Wildland Provincial Park,leisure-nature_reserve,0.0000000000,55.987594,-117.766727
"-1",Saskatoon Mountain Natural Area,leisure-nature_reserve,0.0000000000,55.225995,-119.288973
"-1",Young's Point Provincial Park,leisure-nature_reserve,0.0000000000,55.150555,-117.571811
"-1",Crow Lake Provincial Park,leisure-nature_reserve,0.0000000000,55.800445,-112.152018
"-1",Gipsy Lake Wildland Provincial Park,leisure-nature_reserve,0.0000000000,56.495336,-110.388120
"-1",Grand Rapids Wildland Provincial Park,leisure-nature_reserve,0.0000000000,56.483546,-112.338676
"-1",Gregoire Lake Provincial Park,leisure-nature_reserve,0.0000000000,56.484611,-111.184983
"-1",Marguerite River Wildland Provincial Park,leisure-nature_reserve,0.0000000000,57.638163,-110.265958
"-1",Stony Mountain Wildland Provincial Park,leisure-nature_reserve,0.0000000000,56.215447,-111.244331
"-1",Whitemud Falls Ecological Reserve,leisure-nature_reserve,0.0000000000,56.697300,-110.086581
"-1",Edith Lake Provincial Recreation Area,leisure-nature_reserve,0.0000000000,54.804260,-115.376746
"-1",Hilliard's Bay Provincial Park,leisure-nature_reserve,0.0000000000,55.507728,-116.002296
"-1",La Biche River Wildland Provincial Park,leisure-nature_reserve,0.0000000000,54.988311,-112.624673
"-1",Lesser Slave Lake Provincial Park,leisure-nature_reserve,0.0000000000,55.454670,-114.817298
"-1",Winagami Lake Provincial Park,leisure-nature_reserve,0.0000000000,55.635396,-116.735101
"-1",Winagami Wildland Provincial Park,leisure-nature_reserve,0.0000000000,55.616141,-116.636477
"-1",Beaver Lake Provincial Recreation Area,leisure-nature_reserve,0.0000000000,54.757983,-111.881067
"-1",Garner Orchid Fen Natural Area,leisure-nature_reserve,0.0000000000,54.854647,-112.391718
"-1",Lakeland Provincial Recreation Area,leisure-nature_reserve,0.0000000000,54.721192,-111.398585
"-1",Sir Winston Churchill Provincial Park,leisure-nature_reserve,0.0000000000,54.849280,-111.975764
"-1",George Lake Natural Area,leisure-nature_reserve,0.0000000000,53.941203,-114.113462
"-1",Halfmoon Lake Natural Area,leisure-nature_reserve,0.0000000000,54.051721,-113.348579
"-1",Halfway Lake Natural Area,leisure-nature_reserve,0.0000000000,54.119610,-113.400673
"-1",Long Lake Provincial Park,leisure-nature_reserve,0.0000000000,54.439999,-112.763468
"-1",Majeau Lake Natural Area,leisure-nature_reserve,0.0000000000,53.937653,-114.392628
"-1",North Bruderheim Provincial Recreation Area,leisure-nature_reserve,0.0000000000,53.864546,-112.941845
"-1",Northwest of Bruderheim Natural Area,leisure-nature_reserve,0.0000000000,53.854388,-113.018898
"-1",Opal Natural Area,leisure-nature_reserve,0.0000000000,53.986903,-113.293450
"-1",Park Court Natural Area,leisure-nature_reserve,0.0000000000,53.749585,-114.906199
"-1",Pembina River Natural Area,leisure-nature_reserve,0.0000000000,53.933059,-114.460040
"-1",Pembina River Provincial Park,leisure-nature_reserve,0.0000000000,53.605985,-114.994384
"-1",Prefontaine Brock Lakes Natural Area,leisure-nature_reserve,0.0000000000,53.804674,-114.843301
"-1",Tawatinaw Natural Area,leisure-nature_reserve,0.0000000000,54.281111,-113.337536
"-1",White Earth Valley Natural Area,leisure-nature_reserve,0.0000000000,54.381427,-112.748590
"-1",Whitney Lakes Provincial Park,leisure-nature_reserve,0.0000000000,53.851869,-110.534963
"-1",Lois Hole Centennial Provincial Park,leisure-nature_reserve,0.0000000000,53.603884,-113.708958
"-1",Riverlot 56 Natural Area,leisure-nature_reserve,0.0000000000,53.658833,-113.587010
"-1",Wabamun Lake Provincial Park,leisure-nature_reserve,0.0000000000,53.565096,-114.441611
"-1",Beaverhill Lake Heritage Rangeland Natural Area,leisure-nature_reserve,0.0000000000,53.450799,-112.530078
"-1",Coal Lake North Provincial Recreation Area,leisure-nature_reserve,0.0000000000,53.134120,-113.358038
"-1",Dillberry Lake Provincial Park,leisure-nature_reserve,0.0000000000,52.569724,-110.030923
"-1",Killarney-Reflex Lakes Heritage Rgeland Natural Area,leisure-nature_reserve,0.0000000000,52.605483,-110.061309
"-1",Miquelon Lake Provincial Park,leisure-nature_reserve,0.0000000000,53.246052,-112.872712
"-1",Ribstone Creek Heritage Rangeland Natural Area,leisure-nature_reserve,0.0000000000,52.702418,-110.382791
"-1",Rochon Sands Provincial Park,leisure-nature_reserve,0.0000000000,52.461842,-112.892299
"-1",Hastings Lake Islands Natural Area,leisure-nature_reserve,0.0000000000,53.415354,-112.922817
"-1",North Cooking Lake Natural Area,leisure-nature_reserve,0.0000000000,53.476379,-112.988812
"-1",Pembina River Moon Lake Natural Area,leisure-nature_reserve,0.0000000000,53.473418,-114.995393
"-1",Round Valley Natural Area,leisure-nature_reserve,0.0000000000,53.345031,-115.049810
"-1",Cypress Hills Provincial Park,leisure-nature_reserve,0.1536911864,49.639861,-110.178088
"-1",Michelle Reservoir Provincial Recreation Area,leisure-nature_reserve,0.0913765956,49.533421,-110.372660
"-1",Prairie Coulees Natural Area,leisure-nature_reserve,0.0821311476,50.428365,-110.391916
"-1",Kinbrook Island Provincial Park,leisure-nature_reserve,0.2090243912,50.437197,-111.910577
"-1",Tillebrook Provincial Park,leisure-nature_reserve,0.0000000000,50.538593,-111.812275
"-1",Dinosaur Provincial Park,leisure-nature_reserve,0.0000000000,50.761730,-111.480580
"-1",Midland Provincial Park,leisure-nature_reserve,0.0000000000,51.478212,-112.771171
"-1",Little Fish Lake Provincial Park,leisure-nature_reserve,0.0000000000,51.374253,-112.200948
"-1",Richardson Lake Migratory Bird Sanctuary,leisure-nature_reserve,0.0000000000,58.402703,-111.072919
"-1",Birch Mountains Wildland Provincial Park,leisure-nature_reserve,0.0000000000,57.508604,-112.957729
"-1",Wood Buffalo National Park,leisure-nature_reserve,0.0000000000,59.356721,-113.263494
"-1",Cardinal River Public Land Recreation Area,leisure-nature_reserve,0.0000000000,52.881583,-117.033175
"-1",Hilltop Lake Public Land Recreation Area,leisure-nature_reserve,0.0000000000,55.520695,-119.034884
"-1",Musreau Lake Day Use Public Land Recreation Area,leisure-nature_reserve,0.0000000000,54.550952,-118.640724
"-1",Nose Lake Remote Public Land Recreation Area,leisure-nature_reserve,0.0000000000,54.540550,-119.605343
"-1",Blackstone/Wapiabi Public Land Use Zone,leisure-nature_reserve,0.0000000000,52.552517,-116.563825
"-1",Dormer/Sheep Public Land Use Zone,leisure-nature_reserve,0.0000000000,51.567941,-115.443587
"-1",Ghost Public Land Use Zone,leisure-nature_reserve,0.0000000000,51.472440,-115.101782
"-1",Job/Cline Public Land Use Zone,leisure-nature_reserve,0.0000000000,52.312656,-116.684841
"-1",Kiska/Willson Public Land Use Zone,leisure-nature_reserve,0.0000000000,51.783499,-115.437561
"-1",Kiska/Willson Public Land Use Zone,leisure-nature_reserve,0.0000000000,52.013331,-115.735542
"-1",Kiska/Willson Public Land Use Zone,leisure-nature_reserve,0.0000000000,52.153403,-115.995798
"-1",Kiska/Willson Public Land Use Zone,leisure-nature_reserve,0.0000000000,51.764095,-115.427682
"-1",Kiska/Willson Public Land Use Zone,leisure-nature_reserve,0.0000000000,51.622393,-115.355692
"-1",Kiska/Willson Public Land Use Zone,leisure-nature_reserve,0.0000000000,51.639849,-115.322915
"-1",Kiska/Willson Public Land Use Zone,leisure-nature_reserve,0.0000000000,51.702904,-115.439396
"-1",Kiska/Willson Public Land Use Zone,leisure-nature_reserve,0.0000000000,52.309058,-116.251542
"-1",Panther Corners Public Land Use Zone,leisure-nature_reserve,0.0000000000,51.663183,-115.518850
"-1",Upper Clearwater/Ram Public Land Use Zone,leisure-nature_reserve,0.0000000000,51.974094,-116.009531
"-1",Castle Provincial Park,leisure-nature_reserve,0.0959522518,49.444058,-114.397816
"-1",Castle Wildland Provincial Park,leisure-nature_reserve,0.1605512505,49.322006,-114.304251
"-1",Athabasca Ranch Public Land Use Zone,leisure-nature_reserve,0.0000000000,53.412752,-117.651480
"-1",Cataract Creek Snow Vehicle Public Land Use Zone,leisure-nature_reserve,0.0881163166,50.262309,-114.555308
"-1",Holmes Crossing Public Land Use Zone,leisure-nature_reserve,0.0000000000,54.277054,-114.812201
"-1",Kananaskis Country Public Land Use Zone,leisure-nature_reserve,0.0751134422,50.703607,-114.723536
"-1",McLean Creek Off-Highway Vehicle Public Land Use Zone,leisure-nature_reserve,0.0159865771,50.832286,-114.658162
"-1",Sibbald Snow Vehicle Public Land Use Zone,leisure-nature_reserve,0.0000000000,51.020985,-114.848125
"-1",Strathcona Science Provincial Park,leisure-nature_reserve,0.0000000000,53.559590,-113.374461
"-1",Wabamun/Whitewood Conservation Site,leisure-nature_reserve,0.0000000000,53.606424,-114.481376
"-1",Kootenay National Park,leisure-nature_reserve,0.0578277847,50.963235,-116.043326
"-1",Coal Branch Public Land Use Zone,leisure-nature_reserve,0.0000000000,52.938445,-117.279429
"18971774",Weaselhead Flats,leisure-nature_reserve,0.0000000000,50.989674,-114.151278
"23737976",Cooking Lake / Blackfoot Provincial Recreation Area,leisure-nature_reserve,0.0000000000,53.494227,-112.820277
"23892007",Elk Island National Park,leisure-nature_reserve,0.0000000000,53.607870,-112.861434
"27238659",Aspen Park,leisure-nature_reserve,0.0000000000,50.904051,-113.985294
"35308083",Sherwood Park Natural Area,leisure-nature_reserve,0.0000000000,53.472099,-113.277403
"62311733",Fidler-Greywillow Wildland Provincial Park,leisure-nature_reserve,0.0000000000,58.938138,-110.621519
"62311743",Coyote Lake Natural Area,leisure-nature_reserve,0.0000000000,53.246802,-114.458559
"62311831",Harper Creek Natural Area,leisure-nature_reserve,0.0000000000,58.185361,-114.296120
"62311884",Fidler-Greywillow Wildland Provincial Park,leisure-nature_reserve,0.0000000000,58.971257,-110.550133
"62311895",Coyote Lake Natural Area,leisure-nature_reserve,0.0000000000,53.254270,-114.574389
"62311973",Fidler-Greywillow Wildland Provincial Park,leisure-nature_reserve,0.0000000000,58.791831,-110.731547
"62312112",Sand Lake Natural Area,leisure-nature_reserve,0.0000000000,56.160711,-118.610220
"62312119",Fidler-Greywillow Wildland Provincial Park,leisure-nature_reserve,0.0000000000,58.827170,-110.714567
"62312137",Athabasca Dunes Ecological Reserve,leisure-nature_reserve,0.0000000000,58.176705,-110.887642
"62312244",La Butte Creek Wildland Provincial Park,leisure-nature_reserve,0.0000000000,59.378006,-111.244824
"62312260",Fidler-Greywillow Wildland Provincial Park,leisure-nature_reserve,0.0000000000,58.946978,-110.574823
"62312358",Fidler-Greywillow Wildland Provincial Park,leisure-nature_reserve,0.0000000000,58.819826,-110.723404
"62312386",Fidler-Greywillow Wildland Provincial Park,leisure-nature_reserve,0.0000000000,58.969309,-110.510334
"62312391",Richardson River Dunes Wildland Provincial Park,leisure-nature_reserve,0.0000000000,58.094578,-111.182724
"62312396",Coyote Lake Natural Area,leisure-nature_reserve,0.0000000000,53.254265,-114.531639
"62312434",Ross Lake Natural Area,leisure-nature_reserve,0.0729054052,49.113609,-112.906270
"62312439",Fidler-Greywillow Wildland Provincial Park,leisure-nature_reserve,0.0000000000,58.833709,-110.701960
"62312471",Unknown,leisure-nature_reserve,0.0000000000,59.175103,-110.306068
"62312477",Coyote Lake Natural Area,leisure-nature_reserve,0.0000000000,53.261511,-114.543955
"84831598",Clifford E Lee Nature Sanctuary,leisure-nature_reserve,0.0000000000,53.412624,-113.792567
"84927656",Chickakoo Regonal Park,leisure-nature_reserve,0.0000000000,53.620142,-114.066546
"167123033",Mount Assiniboine Provincial Park,leisure-nature_reserve,0.0544001399,50.937252,-115.760945
"167423057",Hamber Provincial Park,leisure-nature_reserve,0.0000000000,52.380216,-117.881355
"167557376",Unknown,leisure-nature_reserve,0.0000000000,52.859207,-118.638651
"167557791",Unknown,leisure-nature_reserve,0.0000000000,52.991373,-119.005672
"167999572",Wildlife Corridor,leisure-nature_reserve,0.0000000000,51.108032,-115.336328
"188357003",Coyote Lake Conservation Area,leisure-nature_reserve,0.0000000000,53.268799,-114.537827
"223936608",Ann & Sandy Cross Conservation Area,leisure-nature_reserve,0.0000000000,50.863574,-114.238571
"257861654",Caribou Mountains Wildland Provincial Park,leisure-nature_reserve,0.0000000000,59.205565,-114.896980
"257862131",Colin-Cornwall Lakes Wildland Provincial Park,leisure-nature_reserve,0.0000000000,59.572005,-110.391234
"274101885",Lot 27 Uplands,leisure-nature_reserve,0.0000000000,56.170368,-117.405994
"274119747",Weberville Pond,leisure-nature_reserve,0.0000000000,56.360120,-117.313834
"274119748",West Peace Uplands,leisure-nature_reserve,0.0000000000,56.408888,-117.196142
"274119750",Carmon Creek,leisure-nature_reserve,0.0000000000,56.381520,-117.076951
"274119751",Rasmussen Wetland,leisure-nature_reserve,0.0000000000,56.377294,-117.421612
"274133477",Three Creeks,leisure-nature_reserve,0.0000000000,56.378228,-117.142735
"274363896",Three Creeks,leisure-nature_reserve,0.0000000000,56.413613,-117.055681
"274363897",Three Creeks,leisure-nature_reserve,0.0000000000,56.412082,-117.124057
"274363898",Three Creeks,leisure-nature_reserve,0.0000000000,56.435105,-117.098985
"274367219",Three Creeks,leisure-nature_reserve,0.0000000000,56.323653,-117.182113
"274367222",Three Creeks,leisure-nature_reserve,0.0000000000,56.337784,-117.149629
"274367224",Three Creeks,leisure-nature_reserve,0.0000000000,56.299547,-117.131411
"274645352",Brownvale Parklands,leisure-nature_reserve,0.0000000000,56.120028,-117.997348
"274645354",Little Stoney Lake,leisure-nature_reserve,0.0000000000,56.134472,-117.961348
"274645356",Brownvale Parklands II,leisure-nature_reserve,0.0000000000,56.119946,-117.987574
"274645358",Big Stoney Lake Uplands,leisure-nature_reserve,0.0000000000,56.127129,-117.987381
"274647514",Warrensville,leisure-nature_reserve,0.0000000000,56.298447,-117.531177
"274705171",Kinley,leisure-nature_reserve,0.0000000000,56.265815,-117.775286
"274705172",Whitemud River Flats,leisure-nature_reserve,0.0000000000,56.509578,-117.609218
"274705173",Whitemud,leisure-nature_reserve,0.0000000000,56.497827,-117.399637
"274705174",North Whitemud,leisure-nature_reserve,0.0000000000,56.538515,-117.367616
"274705175",Scoter,leisure-nature_reserve,0.0000000000,56.258338,-117.788221
"274705176",South Whitemud,leisure-nature_reserve,0.0000000000,56.509029,-117.296059
"274705177",Lac Cardinal Point Uplands,leisure-nature_reserve,0.0000000000,56.267251,-117.699245
"309094789",Big Knife Provincial Park,leisure-nature_reserve,0.0000000000,52.490321,-112.219343
"339831288",Edmonton and Area Land Trust - Glory Hills,leisure-nature_reserve,0.0000000000,53.632713,-114.018834
"339831489",Edmonton and Area Land Trust - Boisvert's GreenWoods,leisure-nature_reserve,0.0000000000,53.867331,-113.576958
"339831603",Edmonton and Area Land Trust - Ministik,leisure-nature_reserve,0.0000000000,53.268781,-113.019360
"340306411",Unknown,leisure-nature_reserve,0.0000000000,53.307295,-113.015318
"340331442",Unknown,leisure-nature_reserve,0.0000000000,53.287057,-112.988922
"357818145",Karvonen Conservation Site,leisure-nature_reserve,0.0000000000,54.583543,-112.670875
"358213867",Chip Lake Conservation Site,leisure-nature_reserve,0.0000000000,53.652967,-115.333648
"358213868",Gambling Lake Conservation Site,leisure-nature_reserve,0.0000000000,53.334147,-112.873142
"358213870",Sherwood Park Conservation Site,leisure-nature_reserve,0.0000000000,53.334121,-112.860990
"358213871",Walters Conservation Site,leisure-nature_reserve,0.0000000000,53.609091,-115.346210
"358667177",Chip Lake SE Conservation Site,leisure-nature_reserve,0.0000000000,53.610478,-115.260322
"358667178",Chip Lake SW Conservation Site,leisure-nature_reserve,0.0000000000,53.620000,-115.453128
"359908303",East Pit Lake Conservation Site,leisure-nature_reserve,0.0000000000,53.586620,-114.474486
"400859328",Elk River Provincial Recreation Area,leisure-nature_reserve,0.0000000000,52.947089,-116.104911
"400859329",Minnow Lake Provincial Recreation Area,leisure-nature_reserve,0.0000000000,53.357492,-116.040248
"400859331",Wapiabi Provincial Recreation Area,leisure-nature_reserve,0.0000000000,52.546868,-116.358822
"400859332",Wolf Lake West Provincial Recreation Area,leisure-nature_reserve,0.0000000000,53.211642,-116.074123
"401034671",Brazeau Tufa Natural Area,leisure-nature_reserve,0.0000000000,52.876277,-116.243795
"401034672",Cardinal Divide Natural Area,leisure-nature_reserve,0.0000000000,52.892073,-117.369022
"401034673",Caroline Natural Area,leisure-nature_reserve,0.0000000000,52.141900,-114.807044
"401034674",Chedderville Natural Area,leisure-nature_reserve,0.0000000000,52.213503,-114.799262
"401034677",Eagle Creek Natural Area,leisure-nature_reserve,0.0000000000,51.745460,-115.491533
"401034684",North Ram-Nice Creek Natural Area,leisure-nature_reserve,0.0000000000,52.265020,-115.757275
"401034691",Pembina Bigoray Natural Area,leisure-nature_reserve,0.0000000000,53.335910,-115.095679
"401034702",Prairie Creek Clearwater Natural Area,leisure-nature_reserve,0.0000000000,52.315471,-114.912126
"401034706",West Stony Creek Natural Area,leisure-nature_reserve,0.0000000000,51.974966,-114.922820
"401057998",Lake of the Falls Natural Area,leisure-nature_reserve,0.0000000000,52.079897,-116.621321
"401057999",Landslide Lake Natural Area,leisure-nature_reserve,0.0000000000,52.077523,-116.543069
"401325079",Carson-Pegasus Provincial Park,leisure-nature_reserve,0.0000000000,54.298038,-115.644951
"401325083",Bear Lake Natural Area,leisure-nature_reserve,0.0000000000,54.228459,-114.864227
"401325099",Centre of Alberta Natural Area,leisure-nature_reserve,0.0000000000,54.501006,-115.000034
"401325100",Freeman River Provincial Recreation Area,leisure-nature_reserve,0.0000000000,54.572269,-115.404221
"401325101",Highway Natural Area,leisure-nature_reserve,0.0000000000,53.795698,-115.450833
"401325102",Holmes Crossing Sandhills Ecological Reserve,leisure-nature_reserve,0.0000000000,54.276805,-114.863002
"401325103",Mystery Lake Natural Area,leisure-nature_reserve,0.0000000000,54.134448,-114.944335
"401325104",Noel Lake Natural Area,leisure-nature_reserve,0.0000000000,54.355454,-115.039425
"401325105",Paddle River Natural Area,leisure-nature_reserve,0.0000000000,53.820981,-115.296310
"401325106",Trapper Lea's Cabin Provincial Recreation Area,leisure-nature_reserve,0.0000000000,54.524037,-115.092516
"401325107",Vega Natural Area,leisure-nature_reserve,0.0000000000,54.410431,-114.512165
"401424077",Timeu Off-Highway Vehicle Recreation Area,leisure-nature_reserve,0.0000000000,54.462014,-114.521609
"402007498",Blackstone Provincial Recreation Area,leisure-nature_reserve,0.0000000000,52.614442,-116.326830
"402007500",Brown Creek Provincial Recreation Area,leisure-nature_reserve,0.0000000000,52.763935,-116.363392
"402007503",Crescent Falls Provincial Recreation Area,leisure-nature_reserve,0.0000000000,52.387475,-116.357071
"402007506",Dry Haven Provincial Recreation Area,leisure-nature_reserve,0.0000000000,52.428690,-116.206865
"402007508",Fairfax Lake Provincial Recreation Area,leisure-nature_reserve,0.0000000000,52.971506,-116.578667
"402007511",Fish Lake Provincial Recreation Area,leisure-nature_reserve,0.0000000000,52.452929,-116.142593
"402007515",Goldeye Lake Provincial Recreation Area,leisure-nature_reserve,0.0000000000,52.446175,-116.189679
"402007518",Lovett River Provincial Recreation Area,leisure-nature_reserve,0.0000000000,53.065343,-116.818949
"402007522",Pembina Forks Provincial Recreation Area,leisure-nature_reserve,0.0000000000,52.934986,-116.567486
"402007525",Snow Creek Provincial Recreation Area,leisure-nature_reserve,0.0000000000,52.429272,-116.251332
"402007527",Watson Creek Provincial Recreation Area,leisure-nature_reserve,0.0000000000,53.074462,-117.270278
"402007532",Whitehorse Wildland Provincial Park,leisure-nature_reserve,0.0000000000,52.958051,-117.395494
"402810120",Alexo Natural Area,leisure-nature_reserve,0.0000000000,52.475232,-115.782328
"402810121",Aurora Natural Area,leisure-nature_reserve,0.0000000000,52.656566,-115.747536
"402810122",Aylmer Provincial Recreation Area,leisure-nature_reserve,0.0000000000,52.396192,-116.072948
"402810123",Beaverdam Provincial Recreation Area,leisure-nature_reserve,0.0000000000,52.489080,-116.009749
"402810124",Chambers Creek Group Camp Provincial Recreation Area,leisure-nature_reserve,0.0000000000,52.450958,-115.297557
"402810125",Chambers Creek Provincial Recreation Area,leisure-nature_reserve,0.0000000000,52.452440,-115.312293
"402810126",Harlech Provincial Recreation Area,leisure-nature_reserve,0.0000000000,52.502760,-115.917265
"402810127",Horburg Provincial Recreation Area,leisure-nature_reserve,0.0000000000,52.396122,-115.311836
"402810128",Jackfish Lake Provincial Recreation Area,leisure-nature_reserve,0.0000000000,52.503527,-115.569689
"402810129",O'Chiese Natural Area,leisure-nature_reserve,0.0000000000,52.769492,-115.383421
"402810130",Saunders Provincial Recreation Area,leisure-nature_reserve,0.0000000000,52.454673,-115.758279
"402810131",Shunda Viewpoint Provincial Recreation Area,leisure-nature_reserve,0.0000000000,52.481229,-115.755448
"403505182",Fickle Lake Provincial Recreation Area,leisure-nature_reserve,0.0000000000,53.448052,-116.780993
"403505183",Hornbeck Creek Provincial Recreation Area,leisure-nature_reserve,0.0000000000,53.573226,-116.685145
"403505184",Little Sundance Creek Provincial Recreation Area,leisure-nature_reserve,0.0000000000,53.689397,-116.798867
"403505185",Nojack Provincial Recreation Area,leisure-nature_reserve,0.0000000000,53.609941,-115.601961
"403505186",Pinto Creek Canyon Natural Area,leisure-nature_reserve,0.0000000000,53.769433,-117.829119
"403505187",Weald Provincial Recreation Area,leisure-nature_reserve,0.0000000000,53.378843,-116.783942
"403505189",Wildhay Glacial Cascades Natural Area,leisure-nature_reserve,0.0000000000,53.683960,-117.716148
"403505196",Wildhay Provincial Recreation Area,leisure-nature_reserve,0.0000000000,53.521944,-117.952254
"404142101",Bellis Lake Natural Area,leisure-nature_reserve,0.0000000000,54.111391,-112.169599
"404142102",Mallaig Provincial Recreation Area,leisure-nature_reserve,0.0000000000,54.130892,-111.350581
"427066087",Burnt Timber Provincial Recreation Area,leisure-nature_reserve,0.0000000000,51.589836,-115.168588
"427066090",Deer Creek Provincial Recreation Area,leisure-nature_reserve,0.0000000000,51.654209,-115.133585
"427066091",Fallen Timber Provincial Recreation Area,leisure-nature_reserve,0.0000000000,51.622570,-114.726010
"427066092",Fallen Timber South Provincial Recreation Area,leisure-nature_reserve,0.0000000000,51.494631,-115.068861
"427066093",Scalp Creek Natural Area,leisure-nature_reserve,0.0000000000,51.796827,-115.641845
"427066094",South Ghost Provincial Recreation Area,leisure-nature_reserve,0.0000000000,51.312389,-114.951836
"427066095",Waiparous Valley Viewpoint Provincial Recreation Area,leisure-nature_reserve,0.0000000000,51.413846,-115.031018
"427066096",Wild Horse Provincial Recreation Area,leisure-nature_reserve,0.0000000000,51.657572,-115.352494
"427288811",Waiparous Creek Provincial Recreation Area,leisure-nature_reserve,0.0000000000,51.365802,-114.987781
"427288822",Waiparous Creek Group Camp Provincial Recreation Area,leisure-nature_reserve,0.0000000000,51.362161,-114.982918
"427895879",Heart Creek Provincial Recreation Area,leisure-nature_reserve,0.0000000000,51.039414,-115.147627
"427919741",Unknown,leisure-nature_reserve,0.2249999940,50.654263,-115.127747
"427919897",Cobble Flats Provincial Recreation Area,leisure-nature_reserve,0.0000000000,50.814304,-114.817715
"427919898",Little Elbow Provincial Recreation Area,leisure-nature_reserve,0.0617647060,50.796346,-114.857334
"427921248",Elbow River Launch Provincial Recreation Area,leisure-nature_reserve,0.0000000000,50.866873,-114.757649
"427921255",Gooseberry Provincial Recreation Area,leisure-nature_reserve,0.0000000000,50.913660,-114.633979
"427921268",Ing's Mine Provincial Recreation Area,leisure-nature_reserve,0.0000000000,50.904823,-114.801867
"427921272",McLean Creek Provincial Recreation Area,leisure-nature_reserve,0.0000000000,50.888673,-114.679582
"427921278",West Bragg Creek Provincial Recreation Area,leisure-nature_reserve,0.0000000000,50.948903,-114.693815
"427921670",Crane Meadow Provincial Recreation Area,leisure-nature_reserve,0.0000000000,51.053361,-114.910103
"427921671",Dawson Provincial Recreation Area,leisure-nature_reserve,0.0000000000,51.022939,-114.882442
"427921672",Jumpingpound Creek Provincial Recreation Area,leisure-nature_reserve,0.0000000000,51.041096,-114.751942
"427921673",Lusk Creek Provincial Recreation Area,leisure-nature_reserve,0.0000000000,51.033328,-115.011387
"427921674",Old Baldy Pass Trail Provincial Recreation Area,leisure-nature_reserve,0.0000000000,51.005682,-115.018231
"427921675",Pine Grove Provincial Recreation Area,leisure-nature_reserve,0.0000000000,51.040307,-114.773228
"427921676",Pinetop Provincial Recreation Area,leisure-nature_reserve,0.0000000000,51.036504,-114.728765
"427921677",Sibbald Lake Provincial Recreation Area,leisure-nature_reserve,0.0000000000,51.045875,-114.862158
"427921678",Sibbald Meadows Pond Provincial Recreation Area,leisure-nature_reserve,0.0000000000,51.054979,-114.943416
"427921679",Sibbald Viewpoint Provincial Recreation Area,leisure-nature_reserve,0.0000000000,51.042382,-114.841896
"427921680",Stoney Creek Provincial Recreation Area,leisure-nature_reserve,0.0000000000,51.034059,-115.022124
"427927701",Cat Creek Provincial Recreation Area,leisure-nature_reserve,0.1527096184,50.409890,-114.716990
"427927702",Eyrie Gap Provincial Recreation Area,leisure-nature_reserve,0.1764489710,50.393527,-114.599320
"427927703",Fir Creek Provincial Recreation Area,leisure-nature_reserve,0.0467663376,50.394586,-114.563999
"427927704",Fitzsimmons Creek Provincial Recreation Area,leisure-nature_reserve,0.2152934670,50.391120,-114.684263
"427927705",Highwood Compound Provincial Recreation Area,leisure-nature_reserve,0.0089866863,50.388624,-114.629307
"427927706",Highwood Junction Provincial Recreation Area,leisure-nature_reserve,0.1255768901,50.381040,-114.653392
"427927707",Highwood Provincial Recreation Area,leisure-nature_reserve,0.1575000025,50.400714,-114.536096
"427927708",Lantern Creek Provincial Recreation Area,leisure-nature_reserve,0.0487969239,50.489872,-114.807086
"427927709",Lineham Provincial Recreation Area,leisure-nature_reserve,0.0855508919,50.454626,-114.761956
"427927710",Mist Creek Provincial Recreation Area,leisure-nature_reserve,0.1420788715,50.514596,-114.834776
"427927711",Picklejar Provincial Recreation Area,leisure-nature_reserve,0.1443982662,50.510919,-114.823752
"427927712",Sentinel Provincial Recreation Area,leisure-nature_reserve,0.1825275677,50.390686,-114.586691
"427927713",Strawberry Provincial Recreation Area,leisure-nature_reserve,0.1600000014,50.400650,-114.701651
"427927714",Trout Pond Provincial Recreation Area,leisure-nature_reserve,0.1854021890,50.505729,-114.821867
"427929468",Beehive Natural Area,leisure-nature_reserve,0.0839878544,50.064894,-114.648601
"428121604",Wildcat Island Natural Area,leisure-nature_reserve,0.0000000000,51.214535,-114.625353
"428124524",Brown-Lowery Provincial Park,leisure-nature_reserve,0.0000000000,50.812719,-114.429047
"428124525",Fisher Creek Provincial Recreation Area,leisure-nature_reserve,0.0000000000,50.790068,-114.585390
"428124526",Mesa Butte Provincial Recreation Area,leisure-nature_reserve,0.1890701689,50.763011,-114.566093
"428124527",North Fork Provincial Recreation Area,leisure-nature_reserve,0.1199999973,50.753748,-114.542578
"428124528",Sheep Creek Natural Area,leisure-nature_reserve,0.2965920354,50.719220,-114.138052
"428124529",Ware Creek Provincial Recreation Area,leisure-nature_reserve,0.2145286953,50.728651,-114.606041
"428124530",Wildhorse Provincial Recreation Area,leisure-nature_reserve,0.1014416468,50.770166,-114.708154
"428124719",Emerson Creek Natural Area,leisure-nature_reserve,0.1649999981,50.417775,-114.404634
"428124720",Greenford Provincial Recreation Area,leisure-nature_reserve,0.0363638466,50.456841,-114.425558
"428124721",Wolf Creek Provincial Recreation Area,leisure-nature_reserve,0.0000000000,50.570788,-114.564723
"428125428",Chain Lakes Provincial Park,leisure-nature_reserve,0.1223333333,50.216511,-114.193983
"428125429",Etherington Creek Provincial Recreation Area,leisure-nature_reserve,0.1133333333,50.329291,-114.628291
"428125430",Honeymoon Creek Provincial Recreation Area,leisure-nature_reserve,0.0500856902,50.027632,-114.544387
"428125431",Livingstone Falls Provincial Recreation Area,leisure-nature_reserve,0.0000000000,50.101661,-114.442249
"428125432",Mt. Livingstone Natural Area,leisure-nature_reserve,0.1102439040,50.135657,-114.388705
"428125711",Lake McGregor Provincial Recreation Area,leisure-nature_reserve,0.1483333340,50.565408,-112.917678
"428125719",Travers Reservoir Provincial Recreation Area,leisure-nature_reserve,-0.0099999998,50.252581,-112.818037
"428126078",Chinook Provincial Recreation Area,leisure-nature_reserve,0.1500000000,49.669368,-114.605204
"428126079",Dutch Creek Provincial Recreation Area,leisure-nature_reserve,0.1233333349,49.904241,-114.399261
"428126080",Maycroft Provincial Recreation Area,leisure-nature_reserve,0.1589412474,49.800418,-114.151457
"428126081",Racehorse Provincial Recreation Area,leisure-nature_reserve,0.0912167226,49.833349,-114.424168
"428126248",Beauvais Lake Provincial Park,leisure-nature_reserve,0.0875000006,49.409201,-114.116131
"428126249",Beaver Mines Lake Provincial Recreation Area,leisure-nature_reserve,0.0988888881,49.366730,-114.297727
"428126250",Castle Falls Provincial Recreation Area,leisure-nature_reserve,0.1175282781,49.446336,-114.324690
"428126251",Castle River Bridge Provincial Recreation Area,leisure-nature_reserve,0.0495308551,49.402843,-114.338561
"428126252",Syncline Provincial Recreation Area,leisure-nature_reserve,0.0914168450,49.383570,-114.354430
"428127089",Chin Coulee Provincial Recreation Area,leisure-nature_reserve,0.2075836585,49.602132,-112.197527
"428127090",Oldman River Provincial Recreation Area,leisure-nature_reserve,0.2455367295,49.718858,-113.450744
"428127091",Willow Creek Provincial Park,leisure-nature_reserve,0.0850000034,50.118386,-113.778915
"428127987",Waterton Reservoir Provincial Recreation Area,leisure-nature_reserve,0.0402152289,49.329977,-113.686044
"428128292",Outpost Wetlands Natural Area,leisure-nature_reserve,0.0899999999,49.002227,-113.480426
"429914276",Kootenay Plains Provincial Recreation Area,leisure-nature_reserve,0.0000000000,52.061646,-116.422376
"429914329",Thompson Creek Provincial Recreation Area,leisure-nature_reserve,0.0000000000,52.009039,-116.628135
"429915964",Douglas Fir Natural Area,leisure-nature_reserve,0.0000000000,52.194929,-116.431222
"430130353",Bearberry Prairie Natural Area,leisure-nature_reserve,0.0000000000,51.763608,-114.715377
"430130354",Bentz Lake Natural Area,leisure-nature_reserve,0.0000000000,51.798880,-114.857739
"430130355",Cartier Creek Provincial Recreation Area,leisure-nature_reserve,0.0000000000,51.701593,-114.859982
"430130356",Clearwater Ricinus Natural Area,leisure-nature_reserve,0.0000000000,52.089233,-114.856038
"430130357",Elk Creek Fish Pond Provincial Recreation Area,leisure-nature_reserve,0.0000000000,52.057016,-115.656334
"430130358",Elk Creek Provincial Recreation Area,leisure-nature_reserve,0.0000000000,52.053794,-115.646686
"430130359",James-Wilson Provincial Recreation Area,leisure-nature_reserve,0.0000000000,51.820137,-115.189016
"430130360",Markerville Natural Area,leisure-nature_reserve,0.0000000000,52.077458,-114.156193
"430130361",Mitchell Lake Provincial Recreation Area,leisure-nature_reserve,0.0000000000,52.215171,-115.007620
"430130362",Peppers Lake Provincial Recreation Area,leisure-nature_reserve,0.0000000000,52.041154,-115.705719
"430130363",Peppers Lake Staging Provincial Recreation Area,leisure-nature_reserve,0.0000000000,52.045952,-115.694526
"430130364",Phyllis Lake Provincial Recreation Area,leisure-nature_reserve,0.0000000000,52.100884,-114.968340
"430130365",Prairie Creek Group Camp Provincial Recreation Area,leisure-nature_reserve,0.0000000000,52.240631,-115.311989
"430130366",Prairie Creek Provincial Recreation Area,leisure-nature_reserve,0.0000000000,52.248573,-115.305215
"430130367",Ram Falls Provincial Park,leisure-nature_reserve,0.0000000000,52.087886,-115.841183
"430130368",Red Lodge Provincial Park,leisure-nature_reserve,0.0000000000,51.947920,-114.243860
"430130369",Seven Mile Provincial Recreation Area,leisure-nature_reserve,0.0000000000,51.995893,-115.356981
"430130370",Strachan Provincial Recreation Area,leisure-nature_reserve,0.0000000000,52.262659,-115.174181
"430130371",Sundre Natural Area,leisure-nature_reserve,0.0000000000,51.762202,-114.704255
"430130372",Swan Lake Provincial Recreation Area,leisure-nature_reserve,0.0000000000,52.120098,-115.179709
"430209697",Anderson Creek Natural Area,leisure-nature_reserve,0.0000000000,52.840068,-114.545335
"430209698",Battle Lake Natural Area,leisure-nature_reserve,0.0000000000,52.927071,-114.200917
"430209699",Buck Lake Creek Natural Area,leisure-nature_reserve,0.0000000000,53.156034,-114.799964
"430209700",Buck Lake Provincial Recreation Area,leisure-nature_reserve,0.0000000000,53.022404,-114.793474
"430209701",Calhoun Bay Provincial Recreation Area,leisure-nature_reserve,0.0000000000,52.983288,-114.731365
"430209702",Carnwood Modeste Natural Area,leisure-nature_reserve,0.0000000000,53.174209,-114.653679
"430209703",Hoadley Natural Area,leisure-nature_reserve,0.0000000000,52.883523,-114.225231
"430209704",Horseshoe Creek Natural Area,leisure-nature_reserve,0.0000000000,52.863562,-114.904202
"430209705",Jarvis Bay Provincial Park,leisure-nature_reserve,0.0000000000,52.345269,-114.082318
"430209706",Lloyd Creek Natural Area,leisure-nature_reserve,0.0000000000,52.940087,-114.327105
"430209707",Medicine Lodge Hills Natural Area,leisure-nature_reserve,0.0000000000,52.483162,-114.307556
"430209708",Mount Butte Natural Area,leisure-nature_reserve,0.0000000000,52.992617,-114.261497
"430209709",Open Creek Natural Area,leisure-nature_reserve,0.0000000000,52.650594,-114.607742
"430209710",Peaceful Valley Provincial Recreation Area,leisure-nature_reserve,0.0000000000,52.931757,-114.080339
"430209711",St. Francis Natural Area,leisure-nature_reserve,0.0000000000,53.311074,-114.549621
"430209712",Sylvan Lake Natural Area,leisure-nature_reserve,0.0000000000,52.394160,-114.239309
"430209714",Town Creek Natural Area,leisure-nature_reserve,0.0000000000,52.894449,-114.352053
"430209715",Welch Creek Natural Area,leisure-nature_reserve,0.0000000000,52.599639,-114.619432
"430209716",Wilson Creek Natural Area,leisure-nature_reserve,0.0000000000,52.767550,-114.551283
"430223317",Rumsey Ecological Reserve,leisure-nature_reserve,0.1171814669,51.938929,-112.645128
"430264275",Pierre Grey's Lakes Provincial Park,leisure-nature_reserve,0.0000000000,53.904362,-118.591829
"430264277",Unknown,leisure-nature_reserve,0.0000000000,53.873449,-119.173381
"430264278",Big Berland Provincial Recreation Area,leisure-nature_reserve,0.0000000000,53.755913,-118.364800
"430264279",Big Mountain Creek Provincial Recreation Area,leisure-nature_reserve,0.0000000000,54.893024,-118.698833
"430264280",Grizzly Ridge Wildland Provincial Park,leisure-nature_reserve,0.0000000000,55.141234,-115.050152
"430264286",Iosegun Lake Provincial Recreation Area,leisure-nature_reserve,0.0000000000,54.455369,-116.806054
"430264287",Kakwa River Provincial Recreation Area,leisure-nature_reserve,0.0000000000,54.425958,-118.549787
"430264288",Musreau Lake Provincial Recreation Area,leisure-nature_reserve,0.0000000000,54.544092,-118.625275
"430264289",O'Brien Provincial Park,leisure-nature_reserve,0.0000000000,55.065242,-118.822285
"430264290",Pines Provincial Recreation Area,leisure-nature_reserve,0.0000000000,54.460978,-116.942282
"430264291",Sheep Creek Provincial Recreation Area,leisure-nature_reserve,0.0000000000,54.061780,-119.010890
"430264292",Shuttler Flats Provincial Recreation Area,leisure-nature_reserve,0.0000000000,54.769658,-119.559447
"430264293",Simonette River Provincial Recreation Area,leisure-nature_reserve,0.0000000000,55.136726,-118.182820
"430264294",Smoke Lake Provincial Recreation Area,leisure-nature_reserve,0.0000000000,54.364710,-116.909294
"430264295",Smoky River South Provincial Recreation Area,leisure-nature_reserve,0.0000000000,53.891358,-119.154450
"430264296",Southview Provincial Recreation Area,leisure-nature_reserve,0.0000000000,54.185344,-118.682504
"430264297",Two Lakes Provincial Park,leisure-nature_reserve,0.0000000000,54.366114,-119.765949
"430268721",Rock Lake Provincial Park,leisure-nature_reserve,0.0000000000,53.472388,-118.236620
"430673226",Child Lake Meadows Natural Area,leisure-nature_reserve,0.0000000000,58.420217,-116.547188
"430673227",Figure Eight Lake Provincial Recreation Area,leisure-nature_reserve,0.0000000000,56.303576,-117.904593
"430673228",Kleskun Hill Natural Area,leisure-nature_reserve,0.0000000000,55.261498,-118.506491
"430673229",Machesis Lake Provincial Recreation Area,leisure-nature_reserve,0.0000000000,58.327576,-116.574580
"430673230",Ole's Lake Provincial Recreation Area,leisure-nature_reserve,0.0000000000,56.316429,-119.892309
"430673232",Running Lake Provincial Recreation Area,leisure-nature_reserve,0.0000000000,56.669734,-119.033280
"430673233",Saskatoon Island Provincial Park,leisure-nature_reserve,0.0000000000,55.205178,-119.085562
"430673234",Stoney Lake Provincial Recreation Area,leisure-nature_reserve,0.0000000000,56.505499,-118.460815
"430673235",Sulphur Lake Provincial Recreation Area,leisure-nature_reserve,0.0000000000,56.706115,-118.319314
"430676426",Buffalo Tower Provincial Recreation Area,leisure-nature_reserve,0.0000000000,57.956546,-116.207599
"430676427",Caribou River Natural Area,leisure-nature_reserve,0.0000000000,58.475835,-115.863535
"430676428",Crow Lake Ecological Reserve,leisure-nature_reserve,0.0000000000,55.788590,-112.134706
"430676429",Engstrom Lake Provincial Recreation Area,leisure-nature_reserve,0.0000000000,56.192130,-110.905465
"430676430",Fort Vermilion Provincial Recreation Area,leisure-nature_reserve,0.0000000000,58.408127,-116.124432
"430676431",La Saline Natural Area,leisure-nature_reserve,0.0000000000,57.080695,-111.523465
"430676432",Maqua Lake Provincial Recreation Area,leisure-nature_reserve,0.0000000000,56.368220,-111.283190
"430676433",Whitemud Falls Wildland Provincial Park,leisure-nature_reserve,0.0000000000,56.705104,-110.085229
"430874559",Calling Lake Provincial Park,leisure-nature_reserve,0.0000000000,55.176536,-113.274742
"430874560",Chrystina Lake Provincial Recreation Area,leisure-nature_reserve,0.0000000000,54.780945,-115.192595
"430874561",Cross Lake Provincial Park,leisure-nature_reserve,0.0000000000,54.654262,-113.797363
"430874562",Goose Mountain Ecological Reserve,leisure-nature_reserve,0.0000000000,54.757113,-115.957757
"430874563",Lesser Slave Wildland Provincial Park,leisure-nature_reserve,0.0000000000,55.504526,-115.568203
"430874564",Otter-Orloff Lakes Wildland Provincial Park,leisure-nature_reserve,0.0000000000,55.369883,-113.547484
"430874565",Police Point Natural Area,leisure-nature_reserve,0.0000000000,55.565945,-116.134882
"430874566",Spruce Island Lake Natural Area,leisure-nature_reserve,0.0000000000,54.492707,-113.788989
"430888743",Jackson Lake Trail Staging Provincial Recreation Area,leisure-nature_reserve,0.0000000000,54.860484,-111.550017
"430888744",Lakeland Provincial Park,leisure-nature_reserve,0.0000000000,54.759286,-111.557308
"430888745",Wolf Lake Provincial Recreation Area,leisure-nature_reserve,0.0000000000,54.669352,-110.973923
"430890343",Bilby Natural Area,leisure-nature_reserve,0.0000000000,53.697374,-114.111528
"430890344",Bridge Lake Natural Area,leisure-nature_reserve,0.0000000000,54.177258,-113.489526
"430890345",Crippsdale Natural Area,leisure-nature_reserve,0.0000000000,54.097701,-113.281409
"430890346",Dussault Lake Natural Area,leisure-nature_reserve,0.0000000000,53.632400,-114.831146
"430890347",Isle Lake Natural Area,leisure-nature_reserve,0.0000000000,53.613809,-114.707917
"430890348",Kakina Lake Natural Area,leisure-nature_reserve,0.0000000000,53.850199,-114.193974
"430890349",Lac La Nonne Natural Area,leisure-nature_reserve,0.0000000000,53.967108,-114.343921
"430890350",Lily Lake Natural Area,leisure-nature_reserve,0.0000000000,53.709816,-114.654017
"430890351",Matthews Crossing Natural Area,leisure-nature_reserve,0.0000000000,53.650931,-114.918444
"430890352",Newbrook Provincial Recreation Area,leisure-nature_reserve,0.0000000000,54.372959,-112.937569
"430890353",Newton Lake Natural Area,leisure-nature_reserve,0.0000000000,53.995224,-114.196756
"430890354",Redwater Provincial Recreation Area,leisure-nature_reserve,0.0000000000,53.926672,-112.962744
"430890355",Redwater River Natural Area,leisure-nature_reserve,0.0000000000,54.075846,-113.293661
"430890356",Taylor Lake Natural Area,leisure-nature_reserve,0.0000000000,54.096467,-113.332242
"431088013",Lois Hole Centennial Provincial Park,leisure-nature_reserve,0.0000000000,53.598586,-113.734434
"431088019",Wagner Natural Area,leisure-nature_reserve,0.0000000000,53.564039,-113.820345
"431110475",Antelope Hill Provincial Park,leisure-nature_reserve,0.0000000000,51.725424,-111.930077
"431110476",Bigelow Reservoir Provincial Recreation Area,leisure-nature_reserve,0.0000000000,51.887115,-113.468769
"431110477",Buffalo Lake Provincial Recreation Area,leisure-nature_reserve,0.0000000000,52.514667,-112.780173
"431110478",Clifford E. Lee Natural Area,leisure-nature_reserve,0.0000000000,53.415883,-113.785334
"431110479",Gadsby Lake Natural Area,leisure-nature_reserve,0.0000000000,52.510357,-113.225675
"431110480",Gooseberry Lake Provincial Park,leisure-nature_reserve,0.1540000051,52.118488,-110.758871
"431110481",Heatburg Natural Area,leisure-nature_reserve,0.0000000000,52.323129,-113.118398
"431110482",Innisfail Natural Area,leisure-nature_reserve,0.0000000000,52.030390,-113.772387
"431110483",J.J. Collett Natural Area,leisure-nature_reserve,0.0000000000,52.557823,-113.639410
"431110484",Magee Lake Natural Area,leisure-nature_reserve,0.0000000000,52.561333,-113.417498
"431110485",The Narrows Provincial Recreation Area,leisure-nature_reserve,0.0000000000,52.450155,-113.057258
"431110486",Thorsby Natural Area,leisure-nature_reserve,0.0000000000,53.290595,-114.093097
"431110487",Vermilion Provincial Park,leisure-nature_reserve,0.0000000000,53.367687,-110.909735
"431110488",Wainwright Dunes Ecological Reserve,leisure-nature_reserve,0.0000000000,52.597158,-110.645435
"431290854",Antler Lake Island Natural Area,leisure-nature_reserve,0.0000000000,53.489981,-112.976925
"431290855",Bigoray Natural Area,leisure-nature_reserve,0.0000000000,53.407077,-115.063849
"431290856",Easyford Creek Natural Area,leisure-nature_reserve,0.0000000000,53.271637,-115.091983
"431290857",Easyford Natural Area,leisure-nature_reserve,0.0000000000,53.257056,-115.080351
"431290858",Edgar T. Jones Natural Area,leisure-nature_reserve,0.0000000000,53.419628,-112.883829
"431290859",Genesee Natural Area,leisure-nature_reserve,0.0000000000,53.343344,-114.401618
"431290860",Parkland Natural Area,leisure-nature_reserve,0.0000000000,53.388838,-112.840428
"431290861",Rocky Rapids Natural Area,leisure-nature_reserve,0.0000000000,53.261504,-114.982916
"431290862",Sundance Natural Area,leisure-nature_reserve,0.0000000000,53.475758,-114.622193
"431794498",Bullshead Reservoir Provincial Recreation Area,leisure-nature_reserve,0.0570675902,49.677886,-110.516857
"431794499",Kennedy Coulee Ecological Reserve,leisure-nature_reserve,0.1001265824,49.013108,-110.741541
"431794500",Red Rock Coulee Natural Area,leisure-nature_reserve,0.1095238089,49.654131,-110.870568
"431805693",Hand Hills Ecological Reserve,leisure-nature_reserve,0.0000000000,51.398513,-112.285137
"441237359",Whitecourt Crater Protected Site,leisure-nature_reserve,0.0000000000,53.998974,-115.597331
"489695849",Barrier Lake Public Land Recreation Area,leisure-nature_reserve,0.0000000000,51.031054,-115.030986
"489695850",Bison Flats Public Land Recreation Area,leisure-nature_reserve,0.0000000000,54.444445,-118.348835
"489695851",Blackstone Gap Public Land Recreation Area,leisure-nature_reserve,0.0000000000,52.608485,-116.576872
"489695852",Blackstone Viewpoint Public Land Recreation Area,leisure-nature_reserve,0.0000000000,52.699857,-116.313404
"489695853",Brown Creek Viewpoint Public Land Recreation Area,leisure-nature_reserve,0.0000000000,52.790725,-116.385936
"489695855",Cadotte/Peace River Remote Public Land Recreation Area,leisure-nature_reserve,0.0000000000,56.720555,-117.173972
"489695856",Cardinal River Divide Public Land Recreation Area,leisure-nature_reserve,0.0000000000,52.894229,-117.247360
"489695857",Crescent Falls Public Land Recreation Area,leisure-nature_reserve,0.0000000000,52.390189,-116.339805
"489695858",Cutoff Creek Equestrian Staging Public Land Recreation Area,leisure-nature_reserve,0.0000000000,51.978806,-115.617169
"489695859",Cutoff Creek Public Land Recreation Area,leisure-nature_reserve,0.0000000000,51.954185,-115.691891
"489695862",Eagle Creek Public Land Recreation Area,leisure-nature_reserve,0.0000000000,51.722027,-115.497962
"489695866",Eccles Pond Day Use Public Land Recreation Area,leisure-nature_reserve,0.0000000000,53.557400,-117.222900
"489695868",Economy Lake Public Land Recreation Area,leisure-nature_reserve,0.0000000000,54.914582,-118.250758
"489695871",Hilltop Lake,leisure-nature_reserve,0.0000000000,55.520289,-119.038313
"489695872",Hummingbird Public Land Recreation Area,leisure-nature_reserve,0.0000000000,52.078632,-115.986841
"489695873",Jackknife Springs Day Use Public Land Recreation Area,leisure-nature_reserve,0.0000000000,53.055195,-115.356170
"489695874",Jumpingpound Demonstration Public Land Recreation Area,leisure-nature_reserve,0.0000000000,51.031692,-114.807886
"489695875",Mason Creek Day Use Public Land Recreation Area,leisure-nature_reserve,0.0000000000,53.926358,-118.831449
"489695876",Meander River Public Land Recreation Area,leisure-nature_reserve,0.0000000000,59.099126,-117.681266
"489695877",Nose Lake,leisure-nature_reserve,0.0000000000,54.539699,-119.605894
"489695878",Panther Public Land Recreation Area,leisure-nature_reserve,0.0000000000,51.616621,-115.381030
"489695879",Pinto Lake Public Land Recreation Area,leisure-nature_reserve,0.0000000000,52.125049,-116.862377
"489695880",Pinto Lake Public Land Recreation Area,leisure-nature_reserve,0.0000000000,52.153268,-116.686031
"489695881",Semo Lake Remote Public Land Recreation Area,leisure-nature_reserve,0.0000000000,58.834600,-114.955885
"489695882",Siffleur Falls Staging Public Land Recreation Area,leisure-nature_reserve,0.0000000000,52.049673,-116.410782
"489695883",Steeper Water Access Public Land Recreation Area,leisure-nature_reserve,0.0000000000,53.138807,-117.108091
"489695884",Struble Lake Water Access Public Land Recreation Area,leisure-nature_reserve,0.0000000000,52.201343,-114.999785
"489695885",Westview Public Land Recreation Area,leisure-nature_reserve,0.0000000000,54.354027,-118.346725
"490746474",Bustard Island Remote Public Land Recreation Area,leisure-nature_reserve,0.0000000000,58.781901,-110.679556
"490746475",Calling River Water Access Public Land Recreation Area,leisure-nature_reserve,0.0000000000,55.093087,-112.883864
"490746476",Caribou Creek Remote Public Land Recreation Area,leisure-nature_reserve,0.0000000000,55.633113,-112.083569
"490746477",Cascade Rapids Remote Public Land Recreation Area,leisure-nature_reserve,0.0000000000,56.704964,-110.287732
"490746478",Christina River Remote Public Land Recreation Area,leisure-nature_reserve,0.0000000000,56.669621,-111.068413
"490746479",Clausen's Landing Remote Public Land Recreation Area,leisure-nature_reserve,0.0000000000,57.451681,-111.621849
"490746480",Crow Lake Walk-in Tenting Public Land Recreation Area,leisure-nature_reserve,0.0000000000,55.790374,-112.182377
"490746481",Dore Lake Public Land Recreation Area,leisure-nature_reserve,0.0000000000,58.788845,-111.047388
"490746482",Engstrom Remote Public Land Recreation Area,leisure-nature_reserve,0.0000000000,56.763619,-110.560379
"490746483",Greentree Remote Public Land Recreation Area,leisure-nature_reserve,0.0000000000,56.654936,-110.959193
"490746484",House River Public Land Recreation Area,leisure-nature_reserve,0.0000000000,55.640767,-112.149753
"490746485",Mariana Lake Public Land Recreation Area,leisure-nature_reserve,0.0000000000,55.952619,-112.019594
"490746486",Mile 18 Water Access Public Land Recreation Area,leisure-nature_reserve,0.0000000000,55.146210,-111.988548
"490746487",Miseieutin Remote Public Land Recreation Area,leisure-nature_reserve,0.0000000000,56.687288,-110.801396
"490746488",Pearson Lake Public Land Recreation Area,leisure-nature_reserve,0.0000000000,57.971513,-111.234773
"490746489",Richardson River Remote Public Land Recreation Area,leisure-nature_reserve,0.0000000000,58.423266,-111.286057
"490746490",Six Lakes Remote Public Land Recreation Area,leisure-nature_reserve,0.0000000000,57.968089,-111.012195
"490746491",Wandering River Public Land Recreation Area,leisure-nature_reserve,0.0000000000,55.311458,-112.487433
"490746492",Waskahigan Public Land Recreation Area,leisure-nature_reserve,0.0000000000,55.718035,-112.227823
"490746493",Whitemud Falls Remote Public Land Recreation Area,leisure-nature_reserve,0.0000000000,56.691781,-110.063821
"490746494",Winefred Lake Remote Public Land Recreation Area,leisure-nature_reserve,0.0000000000,55.452786,-110.591795
"490790223",Brule Lake Public Land Use Zone,leisure-nature_reserve,0.0000000000,53.249891,-117.824788
"492446324",Allison/Chinook Public Land Use Zone,leisure-nature_reserve,0.1258333343,49.666354,-114.608221
"492446326",Whitecourt Sandhills Cross-Country Ski Public Land Use Zone,leisure-nature_reserve,0.0000000000,54.106494,-115.548617
"492446327",Willow Creek Public Land Use Zone,leisure-nature_reserve,0.0527247193,50.216190,-114.369510
"539306072",Snake Head Natural Area,leisure-nature_reserve,0.0000000000,51.849908,-114.621258
"558364482",Hornbeck Cross Country Skiing Public Land Recreation Area,leisure-nature_reserve,0.0000000000,53.635708,-116.642347
"599439403",Bat Sanctuary,leisure-nature_reserve,0.0000000000,53.948107,-114.568647
"671601262",Hicks Conservation Lands,leisure-nature_reserve,0.0000000000,53.385331,-112.908369
"674732950",Strathcona Wilderness Centre,leisure-nature_reserve,0.0000000000,53.535706,-112.994463
"680443851",Blue Quills National Wildlife Area,leisure-nature_reserve,0.0000000000,54.000168,-111.383687
"269799188",Unknown,leisure-nature_reserve,0.0000000000,50.619585,-114.697910
"331672444",Mount Rhondda,leisure-nature_reserve,0.0000000000,51.644894,-116.565712
"331672679",Collier Peak,leisure-nature_reserve,0.0000000000,51.390460,-116.302286
"331672698",Mount Bosworth,leisure-nature_reserve,0.0000000000,51.463684,-116.332601
"331672730",7a,leisure-nature_reserve,0.0000000000,51.434456,-116.287164
"331672733",9a,leisure-nature_reserve,0.0000000000,51.430339,-116.295091
"331672745",6a,leisure-nature_reserve,0.0000000000,51.462393,-116.295055
"331672747",2a,leisure-nature_reserve,0.0000000000,51.456040,-116.285821
"331672749",3a,leisure-nature_reserve,0.0000000000,51.449498,-116.286434
"331672756",8a,leisure-nature_reserve,0.0000000000,51.463240,-116.310480
"331674683",Wales Peak,leisure-nature_reserve,0.0000000000,52.184643,-117.655919
"331674716",Chaba Peak,leisure-nature_reserve,0.0000000000,52.197718,-117.671497
"331674759",Eden Peak,leisure-nature_reserve,0.0000000000,52.187451,-117.732295
"331675016",Snow Dome,leisure-nature_reserve,0.0000000000,52.187386,-117.317116
"331675078",Mount Columbia,leisure-nature_reserve,0.0000000000,52.147344,-117.440727
"331687870",8m,leisure-nature_reserve,0.2399999946,50.570606,-115.119066
"331687935",8m,leisure-nature_reserve,0.2500000000,50.575785,-115.102395
"331691950",Boom Mountain,leisure-nature_reserve,0.0000000000,51.250691,-116.078684
"331692036",Chickadee Peak,leisure-nature_reserve,0.0000000000,51.260003,-116.134057
"331692113",Chimney N1,leisure-nature_reserve,0.0000000000,51.272250,-116.158578
"331692132",Chimney Peak,leisure-nature_reserve,0.0000000000,51.264131,-116.154536
"331692156",Mount Perren,leisure-nature_reserve,0.0000000000,51.296111,-116.208524
"331692162",Tonsa Peak,leisure-nature_reserve,0.0000000000,51.297957,-116.199643
"331692181",Mount Fay,leisure-nature_reserve,0.0000000000,51.297584,-116.164555
"331692195",Mount Little,leisure-nature_reserve,0.0000000000,51.295249,-116.182846
"331692209",Mount Tuzo,leisure-nature_reserve,0.0000000000,51.301305,-116.228305
"331692232",Deltaform Mountain,leisure-nature_reserve,0.0000000000,51.301958,-116.246190
"331692278",Mount Hungabee,leisure-nature_reserve,0.0000000000,51.332378,-116.284126
"331692293",Ringrose Peak,leisure-nature_reserve,0.0000000000,51.342439,-116.290822
"331692300",Neptuak Mountain,leisure-nature_reserve,0.0000000000,51.307577,-116.258297
"331692319",Wenkchemna Pass,leisure-nature_reserve,0.0000000000,51.316705,-116.271516
"331692321",Wenkchemna Peak,leisure-nature_reserve,0.0000000000,51.327714,-116.275515
"331692362",Glacier Peak,leisure-nature_reserve,0.0000000000,51.350909,-116.283506
"331692378",Mount Lefroy,leisure-nature_reserve,0.0000000000,51.362004,-116.279012
"331707283",Unknown,leisure-nature_reserve,0.1899999976,48.998872,-114.068207
"345454147",Unknown,leisure-nature_reserve,0.0000000000,54.432116,-114.485088
"356602370",Unknown,leisure-nature_reserve,0.0000000000,53.308780,-113.001206
"419182420",10r,leisure-nature_reserve,0.0000000000,52.745272,-118.355851
"419182423",4r,leisure-nature_reserve,0.0000000000,52.737868,-118.328467
"419205876",3r,leisure-nature_reserve,0.0000000000,52.725629,-118.339990
"773338300",7o,leisure-nature_reserve,0.0000000000,52.352939,-117.725279
"773339759",8r,leisure-nature_reserve,0.0000000000,52.740904,-118.347321
"773339940",6r,leisure-nature_reserve,0.0000000000,52.737881,-118.339160
"773340213",5r,leisure-nature_reserve,0.0000000000,52.709582,-118.344445
"773341273",12r,leisure-nature_reserve,0.0000000000,52.749173,-118.361783
"1305941621",R?serve nationale de faune de Meanook,leisure-nature_reserve,0.0000000000,54.613429,-113.347439
"1321394663",Bragg Creek Provincial Park,leisure-nature_reserve,0.0000000000,50.938734,-114.583040
"1342914409",Indian Oils Waterfalls,leisure-nature_reserve,0.0000000000,50.619475,-114.697697
"1700552957",Zinc Mountain,leisure-nature_reserve,0.0000000000,51.173932,-116.398523
"1700553248",Hagen Peak,leisure-nature_reserve,0.0000000000,51.584797,-116.718976
"1700553400",Mount Mollison,leisure-nature_reserve,0.0000000000,51.132737,-116.394316
"1700561438",1b,leisure-nature_reserve,0.0000000000,51.227982,-116.049863
"1700561550",7b,leisure-nature_reserve,0.0000000000,51.220113,-116.028162
"1718852760",Parc national Jasper,leisure-nature_reserve,0.0000000000,52.949249,-118.561295
"1720021403",Parc national Jasper,leisure-nature_reserve,0.0000000000,53.215413,-119.124178
"1989070801",O'Brien Provincial Park,leisure-nature_reserve,0.0000000000,55.065545,-118.816001
"-1819785983",Unknown,leisure-nature_reserve,0.0000000000,56.508781,-117.586324
"-1811830373",Unknown,leisure-nature_reserve,0.0000000000,50.986700,-114.164203
"-1598278264",Amiskwi Peak,leisure-nature_reserve,0.0000000000,51.533928,-116.699805
"-1598278230",Sea Shoal Mountain,leisure-nature_reserve,0.0000000000,51.470740,-116.729173
"-1598278229",Spike Peak,leisure-nature_reserve,0.0000000000,51.429084,-116.788590
"-1583154022",Wood Buffalo National Park,leisure-nature_reserve,0.0000000000,59.627172,-112.736931
"-1550868339",Parc national Wood Buffalo,leisure-nature_reserve,0.0000000000,59.626058,-113.253102
"-1520581849",Canoe Meadows Day Use Area,leisure-nature_reserve,0.0000000000,51.055501,-115.013383
"-1416845109",Siffleur Wilderness Area,leisure-nature_reserve,0.0000000000,51.912661,-116.548007
"-1386534554",White Goat Wilderness Area,leisure-nature_reserve,0.0000000000,52.215176,-116.831570
"-1236424388",Peter Lougheed Provincial Park,leisure-nature_reserve,0.2099999934,50.648080,-115.164279
"-1236424387",Peter Lougheed Provincial Park,leisure-nature_reserve,0.1800000072,50.696736,-115.168745
"-1215427582",Peter Lougheed Provincial Park,leisure-nature_reserve,0.2700000107,50.790342,-115.275071
"-1190725668",Unknown,leisure-nature_reserve,0.0000000000,53.323241,-113.061839
"-1182876254",Unknown,leisure-nature_reserve,0.0000000000,53.345064,-113.074285
"-852756397",Bow Valley Provincial Park,leisure-nature_reserve,0.0000000000,51.078975,-115.072349
"-680982272",White Goat Wilderness Area,leisure-nature_reserve,0.0000000000,52.233192,-117.016039
"-678630663",Parc national Jasper,leisure-nature_reserve,0.0000000000,52.210521,-117.541305
"-678630662",Parc national Jasper,leisure-nature_reserve,0.0000000000,52.211981,-117.716458
"-672135443",Unknown,leisure-nature_reserve,0.0000000000,54.961073,-112.828023
"-590048327",Parc national Jasper,leisure-nature_reserve,0.0000000000,52.630519,-117.249579
"-551407452",Ghost River Wilderness Area,leisure-nature_reserve,0.0000000000,51.366244,-115.405844
"-270561598",Unknown,leisure-nature_reserve,0.0000000000,54.470845,-110.107895
"-261365641",Unknown,leisure-nature_reserve,0.0000000000,53.212660,-116.073185
"-259877585",Unknown,leisure-nature_reserve,0.0000000000,51.758606,-115.506180
"-24039187",Oldman River Falls,leisure-nature_reserve,0.0000000000,50.050657,-114.585848
"278734627",Chain Lakes Provincial Park,leisure-nature_reserve,0.0399999991,50.218563,-114.198003
"309895027",Unknown,leisure-nature_reserve,0.0000000000,52.752601,-114.748156
"582027992",Mactaggart Sanctuary,leisure-nature_reserve,0.0000000000,53.441574,-113.547934
"2006908567",Mount Allen,leisure-nature_reserve,0.0000000000,51.291667,-116.219740
"2006908570",Mount Allen,leisure-nature_reserve,0.0000000000,51.291656,-116.219746
"2106583339",Mount Rhondda,leisure-nature_reserve,0.0000000000,51.644902,-116.565751
"2121501528",5a,leisure-nature_reserve,0.0000000000,51.448696,-116.289369
"2121501529",4a,leisure-nature_reserve,0.0000000000,51.461043,-116.291519
"2121501530",Kicking Horse Pass,leisure-nature_reserve,0.0000000000,51.451946,-116.286241
"2121639967",8b,leisure-nature_reserve,0.0000000000,51.249321,-116.066737
"2121639981",37s,leisure-nature_reserve,0.0000000000,51.241056,-116.061227
"2129355361",2a,leisure-nature_reserve,0.0000000000,51.453134,-116.286119
"2129357849",3b,leisure-nature_reserve,0.0000000000,51.224945,-116.041487
"2129357850",5b,leisure-nature_reserve,0.0000000000,51.222507,-116.034763
"2129357851",6b,leisure-nature_reserve,0.0000000000,51.244021,-116.063204
"-1",Sandy Pool Park,leisure-nature_reserve,0.5300000161,48.757868,-123.834942
"-1",Shawnigan Beach Estates Greenbelt,leisure-nature_reserve,0.6999999881,48.657196,-123.654578
"-1",Nugget Park,leisure-nature_reserve,0.3499999940,48.666946,-123.655139
"-1",Koksilah River Park,leisure-nature_reserve,0.3033333371,48.690184,-123.650351
"-1",George Derby Conservation Area,leisure-nature_reserve,12.4366668070,49.235153,-122.921656
"-1",Unknown,leisure-nature_reserve,2.6866666873,49.084408,-122.828092
"-1",George C. Reifel Migratory Bird Sanctuary,leisure-nature_reserve,0.9109999796,49.101189,-123.182077
"-1",Iona Beach Regional Park,leisure-nature_reserve,5.7200000137,49.216455,-123.207129
"-1",Pacific Rim National Park Reserve - Broken Group Islands Unit,leisure-nature_reserve,0.1665257601,48.900926,-125.317285
"-1",Pacific Rim National Park Reserve - Long Beach Unit,leisure-nature_reserve,0.2301020407,49.052946,-125.736318
"-1",Pacific Rim National Park Reserve of Canada,leisure-nature_reserve,0.2256097600,48.928628,-125.287305
"-1",Pacific Rim National Park Reserve - West Coast Trail Unit,leisure-nature_reserve,0.2029162192,48.694873,-124.857905
"-1",Gulf Islands National Park Reserve,leisure-nature_reserve,0.3228979586,48.751913,-123.237063
"-1",Sea to Sea Regional Park,leisure-nature_reserve,0.2702758628,48.447386,-123.682440
"-1",Jackpine Remnant Protected Area,leisure-nature_reserve,0.0000000000,59.230851,-123.339046
"-1",Kotcho Lake Ecological Reserve,leisure-nature_reserve,0.0000000000,59.070839,-121.095804
"-1",Liard River Corridor Protected Area,leisure-nature_reserve,0.0000000000,59.388798,-125.508662
"-1",Liard River Corridor Provincial Park,leisure-nature_reserve,0.0000000000,59.377051,-125.329121
"-1",Liard River Hotsprings Provincial Park,leisure-nature_reserve,0.0000000000,59.419430,-126.080662
"-1",Liard River West Corridor Provincial Park,leisure-nature_reserve,0.0000000000,59.416637,-125.884080
"-1",Maxhamish Lake Protected Area,leisure-nature_reserve,0.0000000000,59.846137,-123.318211
"-1",Muncho Lake Provincial Park,leisure-nature_reserve,0.0000000000,58.936425,-125.704008
"-1",Scatter River Old Growth Provincial Park,leisure-nature_reserve,0.0000000000,59.627313,-124.678624
"-1",Sikanni Chief Falls Protected Area,leisure-nature_reserve,0.0000000000,57.260890,-122.994097
"-1",Smith River Falls-Fort Halkett Provincial Park,leisure-nature_reserve,0.0000000000,59.564548,-126.464954
"-1",Thinahtea North Protected Area,leisure-nature_reserve,0.0000000000,59.780351,-120.191650
"-1",Thinahtea South Protected Area,leisure-nature_reserve,0.0000000000,59.653245,-120.317495
"-1",Bearhole Lake Protected Area,leisure-nature_reserve,0.0000000000,55.044365,-120.353880
"-1",Bearhole Lake Provincial Park,leisure-nature_reserve,0.0000000000,55.043409,-120.569798
"-1",Bijoux Falls Provincial Park,leisure-nature_reserve,0.0000000000,55.312376,-122.668946
"-1",Butler Ridge Provincial Park,leisure-nature_reserve,0.0000000000,56.182449,-122.298575
"-1",East Pine Provincial Park,leisure-nature_reserve,0.0000000000,55.719526,-121.223633
"-1",Gwillim Lake Provincial Park,leisure-nature_reserve,0.0000000000,55.421815,-121.279720
"-1",Heather - Dina Lakes Provincial Park,leisure-nature_reserve,0.0000000000,55.511451,-123.287546
"-1",Hole In The Wall Provincial Park,leisure-nature_reserve,0.0000000000,55.146166,-121.854207
"-1",Kiskatinaw Provincial Park,leisure-nature_reserve,0.0000000000,55.960024,-120.564500
"-1",Kiskatinaw River Provincial Park,leisure-nature_reserve,0.0000000000,56.090613,-120.150264
"-1",One Island Lake Provincial Park,leisure-nature_reserve,0.0000000000,55.305306,-120.277484
"-1",Peace River Corridor Provincial Park,leisure-nature_reserve,0.0000000000,56.104532,-120.222120
"-1",Pine Lemoray Provincial Park,leisure-nature_reserve,0.0000000000,55.391302,-122.517628
"-1",Rolla Canyon Ecological Reserve,leisure-nature_reserve,0.0000000000,55.879820,-120.005617
"-1",Babine Lake Marine Provincial Park - Smithers Landing Site,leisure-nature_reserve,0.0000000000,55.067309,-126.540808
"-1",Finlay-Russel Protected Area,leisure-nature_reserve,0.0000000000,57.343424,-126.081289
"-1",Graham - Laurier Provincial Park,leisure-nature_reserve,0.0000000000,56.597617,-123.470374
"-1",Mount Blanchet Provincial Park,leisure-nature_reserve,0.0000000000,55.277433,-125.861196
"-1",Nation Lakes Provincial Park,leisure-nature_reserve,0.0000000000,55.424797,-125.402653
"-1",Nilkitkwa Lake Provincial Park,leisure-nature_reserve,0.0000000000,55.389790,-126.656938
"-1",Omineca Protected Area,leisure-nature_reserve,0.0000000000,55.802187,-124.904751
"-1",Omineca Provincial Park,leisure-nature_reserve,0.0000000000,55.832587,-124.699292
"-1",Redfern-Keily Provincial Park,leisure-nature_reserve,0.0000000000,57.405657,-123.878148
"-1",Takla Marine Provincial Park - Takla West,leisure-nature_reserve,0.0000000000,55.417099,-125.934376
"-1",Kwadacha Wilderness Provincial Park,leisure-nature_reserve,0.0000000000,57.820005,-125.058196
"-1",Northern Rocky Mountains Protected Area,leisure-nature_reserve,0.0000000000,58.659529,-124.456948
"-1",Northern Rocky Mountains Provincial Park,leisure-nature_reserve,0.0000000000,58.124131,-124.280763
"-1",Stone Mountain Provincial Park,leisure-nature_reserve,0.0000000000,58.589959,-124.756139
"-1",Anderson Flats Provincial Park,leisure-nature_reserve,0.0000000000,55.244079,-127.665287
"-1",Bear Glacier Provincial Park,leisure-nature_reserve,0.0000000000,56.097548,-129.674310
"-1",Border Lake Provincial Park,leisure-nature_reserve,0.0000000000,56.354017,-130.714160
"-1",Boulder Creek Provincial Park,leisure-nature_reserve,0.0000000000,55.106709,-127.430010
"-1",Bulkley Junction Provincial Park,leisure-nature_reserve,0.0000000000,55.235377,-127.677969
"-1",Craig Headwaters Protected Area,leisure-nature_reserve,0.0000000000,56.558463,-131.224027
"-1",Great Glacier Provincial Park,leisure-nature_reserve,0.0000000000,56.843531,-131.850697
"-1",Kitwanga Mountain Provincial Park,leisure-nature_reserve,0.0000000000,55.112884,-128.158718
"-1",Lava Forks Provincial Park,leisure-nature_reserve,0.0000000000,56.441677,-130.891820
"-1",Meziadin Lake Provincial Park,leisure-nature_reserve,0.0000000000,56.085829,-129.300095
"-1",Ningunsaw Provincial Park,leisure-nature_reserve,0.0000000000,56.827143,-130.095405
"-1",Ningunsaw River Ecological Reserve,leisure-nature_reserve,0.0000000000,56.905862,-130.118581
"-1",Nisga'a Memorial Lava Bed Corridor Protected Area,leisure-nature_reserve,0.0000000000,55.191451,-129.179100
"-1",Nisga'a Memorial Lava Bed Protected Area,leisure-nature_reserve,0.0000000000,55.096754,-128.948415
"-1",Nisga'a Memorial Lava Bed Provincial Park,leisure-nature_reserve,0.0000000000,55.151769,-128.952480
"-1",Ross Lake Provincial Park,leisure-nature_reserve,0.0000000000,55.259715,-127.523865
"-1",Seeley Lake Provincial Park,leisure-nature_reserve,0.0000000000,55.198317,-127.690003
"-1",Sustut Protected Area,leisure-nature_reserve,0.0000000000,56.451616,-126.750779
"-1",Sustut Provincial Park,leisure-nature_reserve,0.0000000000,56.339335,-126.650600
"-1",Swan Lake/Kispiox River Provincial Park,leisure-nature_reserve,0.0000000000,55.884006,-128.576949
"-1",Atlin/T?ix?gi Aan Tlein Provincial Park,leisure-nature_reserve,0.0000000000,59.185058,-133.930085
"-1",Hyland River Provincial Park,leisure-nature_reserve,0.0000000000,59.962026,-128.145042
"-1",Portage Brule Rapids Ecological Reserve,leisure-nature_reserve,0.0000000000,59.639655,-126.906408
"-1",Portage Brule Rapids Protected Area,leisure-nature_reserve,0.0000000000,59.649048,-126.899587
"-1",Miracle Beach Provincial Park,leisure-nature_reserve,0.2111111128,49.847089,-125.096940
"-1",Dall River Old Growth Provincial Park,leisure-nature_reserve,0.0000000000,58.659845,-127.707467
"-1",Denetiah Corridor Protected Area,leisure-nature_reserve,0.0000000000,58.671593,-127.090623
"-1",Denetiah Provincial Park,leisure-nature_reserve,0.0000000000,58.514775,-127.391184
"-1",Dune Za Keyih Protected Area,leisure-nature_reserve,0.0000000000,58.086556,-125.702412
"-1",Dune Za Keyih Provincial Park [A.K.A. Frog-Gataga Provincial Park],leisure-nature_reserve,0.0000000000,58.322022,-126.347708
"-1",Chukachida Protected Area,leisure-nature_reserve,0.0000000000,57.686368,-127.169761
"-1",Finlay-Russel Provincial Park,leisure-nature_reserve,0.0000000000,57.464817,-126.216959
"-1",Gladys Lake Ecological Reserve,leisure-nature_reserve,0.0000000000,57.591530,-128.871040
"-1",Mount Edziza Provincial Park,leisure-nature_reserve,0.0000000000,57.691504,-130.737721
"-1",Pitman River Protected Area,leisure-nature_reserve,0.0000000000,58.033837,-127.884495
"-1",Spatsizi Plateau Wilderness Provincial Park,leisure-nature_reserve,0.0000000000,57.540718,-128.491406
"-1",Stikine River Provincial Park,leisure-nature_reserve,0.0000000000,57.963418,-128.988836
"-1",Tatlatui Provincial Park,leisure-nature_reserve,0.0000000000,56.996630,-127.385461
"-1",Big Creek Provincial Park,leisure-nature_reserve,0.1351039398,51.303828,-123.159121
"-1",Bishop River Provincial Park,leisure-nature_reserve,0.1349345279,50.914108,-124.039354
"-1",Desolation Sound Marine Provincial Park,leisure-nature_reserve,0.1138013700,50.102251,-124.705374
"-1",Francis Point Ecological Reserve,leisure-nature_reserve,0.0646758881,49.614331,-124.063410
"-1",Francis Point Provincial Park,leisure-nature_reserve,0.1499999985,49.611135,-124.057298
"-1",Hardy Island Marine Provincial Park,leisure-nature_reserve,0.1836193531,49.728495,-124.216020
"-1",Inland Lake Provincial Park,leisure-nature_reserve,0.0956345185,49.953882,-124.481335
"-1",Malaspina Provincial Park,leisure-nature_reserve,0.1225000009,50.036768,-124.778301
"-1",Princess Louisa Marine Provincial Park,leisure-nature_reserve,0.1193055556,50.208254,-123.775237
"-1",Saltery Bay Provincial Park,leisure-nature_reserve,0.1374999993,49.780903,-124.199386
"-1",Sechelt Inlets Marine Provincial Park - Tzoonie Narrows Site,leisure-nature_reserve,0.1066666668,49.708602,-123.781136
"-1",Skookumchuck Narrows Provincial Park,leisure-nature_reserve,0.0737500000,49.740071,-123.908889
"-1",South Chilcotin Mountains Provincial Park,leisure-nature_reserve,0.1361250298,51.032172,-123.059017
"-1",Ts'il?os Provincial Park,leisure-nature_reserve,0.1484791464,51.192453,-123.970072
"-1",Brackendale Eagles Provincial Park,leisure-nature_reserve,0.4445098006,49.756423,-123.166365
"-1",Brandywine Falls Provincial Park,leisure-nature_reserve,0.5551515041,50.040732,-123.114880
"-1",Garibaldi Provincial Park,leisure-nature_reserve,0.1819368085,49.943455,-122.751241
"-1",Tantalus Provincial Park,leisure-nature_reserve,0.1610975606,49.825898,-123.289792
"-1",Anderson Bay Provincial Park,leisure-nature_reserve,0.1100000006,49.513191,-124.135535
"-1",Apodaca Provincial Park,leisure-nature_reserve,0.3355510055,49.354119,-123.338897
"-1",Bowen Island Ecological Reserve,leisure-nature_reserve,0.3060000028,49.358875,-123.358996
"-1",Cypress Provincial Park,leisure-nature_reserve,4.9615941903,49.421873,-123.208477
"-1",Jedediah Island Marine Provincial Park,leisure-nature_reserve,0.1002127675,49.499835,-124.203846
"-1",Mount Elphinstone Provincial Park,leisure-nature_reserve,0.2688888841,49.447503,-123.631201
"-1",Mount Richardson Provincial Park,leisure-nature_reserve,0.1167142867,49.567648,-123.759169
"-1",Porpoise Bay Provincial Park,leisure-nature_reserve,0.3585714293,49.506842,-123.748121
"-1",Porteau Cove Provincial Park,leisure-nature_reserve,0.4166666716,49.556264,-123.238296
"-1",Porteau Cove Recreation Area,leisure-nature_reserve,0.8600000143,49.559364,-123.235803
"-1",Roberts Creek Provincial Park,leisure-nature_reserve,0.2599999905,49.441903,-123.672262
"-1",Sabine Channel Provincial Park,leisure-nature_reserve,0.1104242429,49.509474,-124.365644
"-1",Sechelt Inlets Marine Provincial Park - Kunechin Point Site,leisure-nature_reserve,0.1219999999,49.630146,-123.804524
"-1",Simson Provincial Park,leisure-nature_reserve,0.1570967763,49.482074,-123.965277
"-1",South Texada Island Provincial Park,leisure-nature_reserve,0.1182051279,49.519887,-124.175071
"-1",Arbutus Grove Provincial Park,leisure-nature_reserve,1.0914380750,49.248764,-124.150948
"-1",Carmanah Walbran Provincial Park,leisure-nature_reserve,0.1875567186,48.653550,-124.631365
"-1",Gabriola Sands Provincial Park,leisure-nature_reserve,0.5979894167,49.194253,-123.858887
"-1",Hitchie Creek Provincial Park,leisure-nature_reserve,0.1284210535,48.795455,-124.739869
"-1",Nitinat River Provincial Park,leisure-nature_reserve,0.1522222244,48.885302,-124.590672
"-1",Rathtrevor Beach Provincial Park,leisure-nature_reserve,0.5925925942,49.322673,-124.261911
"-1",San Juan River Estuary Ecological Reserve,leisure-nature_reserve,0.2771428525,48.571927,-124.371084
"-1",Sandwell Provincial Park,leisure-nature_reserve,0.7008981497,49.186396,-123.816820
"-1",J?ji7em and Kw?ulh Marine Provincial Park,leisure-nature_reserve,0.1630066547,49.620299,-124.850795
"-1",Woodley Range Ecological Reserve,leisure-nature_reserve,0.5077777737,49.025792,-123.821960
"-1",Yellowpoint Bog Ecological Reserve,leisure-nature_reserve,0.3370000005,49.053241,-123.784230
"-1",Ballingall Islets Ecological Reserve,leisure-nature_reserve,0.1099999994,48.907032,-123.459145
"-1",Beaver Point Provincial Park,leisure-nature_reserve,0.2650000006,48.770703,-123.402724
"-1",Burgoyne Bay Provincial Park,leisure-nature_reserve,0.2827027039,48.784973,-123.517117
"-1",Canoe Islets Ecological Reserve,leisure-nature_reserve,0.2262833251,49.027662,-123.588159
"-1",Dionisio Point Provincial Park,leisure-nature_reserve,0.2042857132,49.005893,-123.574614
"-1",Eves Provincial Park,leisure-nature_reserve,0.2800000012,48.861214,-123.698243
"-1",Mount Maxwell Ecological Reserve,leisure-nature_reserve,0.2924242467,48.813273,-123.545765
"-1",Mount Maxwell Provincial Park,leisure-nature_reserve,0.3246666710,48.803758,-123.514700
"-1",Mount Tuam Ecological Reserve,leisure-nature_reserve,0.2619047615,48.728783,-123.469586
"-1",Rose Islets Ecological Reserve,leisure-nature_reserve,0.1481211102,49.008708,-123.644256
"-1",Ruckle Provincial Park,leisure-nature_reserve,0.2284375015,48.780871,-123.388745
"-1",Bamberton Provincial Park,leisure-nature_reserve,0.7249999940,48.606033,-123.527066
"-1",Bright Angel Provincial Park,leisure-nature_reserve,0.4793077989,48.735325,-123.679439
"-1",Discovery Island Marine Provincial Park,leisure-nature_reserve,0.4039999962,48.424079,-123.236658
"-1",John Dean Provincial Park,leisure-nature_reserve,0.7820000112,48.614648,-123.448194
"-1",Juan de Fuca Provincial Park,leisure-nature_reserve,0.1913392860,48.495830,-124.309764
"-1",Koksilah River Provincial Park,leisure-nature_reserve,0.1530769247,48.649166,-123.731513
"-1",Oak Bay Islands Ecological Reserve,leisure-nature_reserve,0.2731250040,48.426536,-123.263841
"-1",Sooke Mountain Provincial Park,leisure-nature_reserve,0.3208823533,48.438763,-123.657325
"-1",Sooke Potholes Provincial Park,leisure-nature_reserve,0.1663160375,48.428587,-123.712267
"-1",Trial Islands Ecological Reserve,leisure-nature_reserve,0.5125967872,48.400979,-123.305373
"-1",West Shawnigan Lake Provincial Park,leisure-nature_reserve,0.4736800642,48.640999,-123.651324
"-1",Goldstream Provincial Park,leisure-nature_reserve,1.5740625057,48.474407,-123.548630
"-1",Cowichan River Provincial Park,leisure-nature_reserve,0.2696999998,48.781642,-123.926611
"-1",Clayoquot Arm Provincial Park,leisure-nature_reserve,0.2000399998,49.173482,-125.559739
"-1",Flores Island Provincial Park,leisure-nature_reserve,0.1131440164,49.292232,-126.176204
"-1",Gibson Marine Provincial Park,leisure-nature_reserve,0.1280000007,49.263648,-126.073274
"-1",Hesquiat Peninsula Provincial Park,leisure-nature_reserve,0.1245355193,49.435227,-126.513589
"-1",Kennedy Lake Provincial Park,leisure-nature_reserve,0.2233333336,49.047201,-125.561268
"-1",Kennedy River Bog Provincial Park,leisure-nature_reserve,0.2800000012,49.100948,-125.626788
"-1",Maquinna Marine Provincial Park,leisure-nature_reserve,0.1589528800,49.387900,-126.334626
"-1",Maquinna Protected Area,leisure-nature_reserve,0.4500000030,49.373062,-126.275627
"-1",Stamp River Provincial Park,leisure-nature_reserve,0.2800000028,49.344905,-124.933706
"-1",Sydney Inlet Provincial Park,leisure-nature_reserve,0.1189230765,49.479914,-126.283015
"-1",Vargas Island Provincial Park,leisure-nature_reserve,0.1411298078,49.174531,-126.031700
"-1",Elk Falls Provincial Park,leisure-nature_reserve,0.6704999951,50.040713,-125.323000
"-1",Ha'thayim Marine Provincial Park,leisure-nature_reserve,0.1176595746,50.170300,-124.955551
"-1",Strathcona Provincial Park,leisure-nature_reserve,0.1393931902,49.630200,-125.708905
"-1",Thurston Bay Marine Provincial Park,leisure-nature_reserve,0.1139999987,50.365734,-125.323214
"-1",Wood Mountain Ski Park,leisure-nature_reserve,0.1783333371,49.659387,-125.165496
"-1",Big Bunsby Marine Provincial Park,leisure-nature_reserve,0.1093333327,50.107398,-127.509308
"-1",Brooks Peninsula (Muqqiwn) Provincial Park,leisure-nature_reserve,0.1222506925,50.179852,-127.673636
"-1",Checleset Bay Ecological Reserve,leisure-nature_reserve,0.1113583815,50.059192,-127.637535
"-1",Clanninick Creek Ecological Reserve,leisure-nature_reserve,0.1883333338,50.063773,-127.387629
"-1",Claud Elliott Creek Ecological Reserve,leisure-nature_reserve,0.1029411773,50.324860,-126.562970
"-1",Claud Elliott Lake Provincial Park,leisure-nature_reserve,0.1313636371,50.315433,-126.551331
"-1",Cormorant Channel Marine Provincial Park,leisure-nature_reserve,0.1425806470,50.588184,-126.824423
"-1",Kingcome River/Atlatzi River Ecological Reserve,leisure-nature_reserve,0.1532258038,51.047741,-126.139531
"-1",Lower Nimpkish Provincial Park,leisure-nature_reserve,0.1294117647,50.536749,-127.009383
"-1",Lower Tsitika River Provincial Park,leisure-nature_reserve,0.1175769224,50.460457,-126.591938
"-1",Mount Derby Ecological Reserve,leisure-nature_reserve,0.1013636360,50.441081,-126.552841
"-1",Nuchatlitz Provincial Park,leisure-nature_reserve,0.1154304635,49.808329,-126.970903
"-1",Power River Watershed Protected Area,leisure-nature_reserve,0.1405691054,50.213131,-127.477515
"-1",Robson Bight (Michael Bigg) Ecological Reserve,leisure-nature_reserve,0.1055970153,50.489456,-126.569855
"-1",Schoen Lake Provincial Park,leisure-nature_reserve,0.0998584904,50.176607,-126.245375
"-1",Tahsish Kwois Provincial Park,leisure-nature_reserve,0.1121580922,50.189694,-127.161658
"-1",Tahsish River Ecological Reserve,leisure-nature_reserve,0.0133333330,50.143810,-127.113069
"-1",Tsitika Mountain Ecological Reserve,leisure-nature_reserve,0.1616666673,50.441824,-126.623745
"-1",Woss Lake Provincial Park,leisure-nature_reserve,0.1374413643,50.060856,-126.626664
"-1",Broughton Archipelago Marine Provincial Park,leisure-nature_reserve,0.0626116838,50.688172,-126.663357
"-1",Cape Scott Provincial Park,leisure-nature_reserve,0.1573018755,50.764972,-128.244164
"-1",Duke Of Edinburgh Ecological Reserve,leisure-nature_reserve,0.1132432426,51.002783,-127.709531
"-1",Marble River Provincial Park,leisure-nature_reserve,0.1337113417,50.543854,-127.523752
"-1",Misty Lake Ecological Reserve,leisure-nature_reserve,0.0699999980,50.607600,-127.262118
"-1",Crowsnest Provincial Park,leisure-nature_reserve,0.4920000136,49.652035,-114.698757
"-1",Elk Lakes Provincial Park,leisure-nature_reserve,0.1373856709,50.480663,-115.089078
"-1",Height of the Rockies Provincial Park,leisure-nature_reserve,0.1494692950,50.490050,-115.229952
"-1",Kikomun Creek Provincial Park,leisure-nature_reserve,0.1087499994,49.241746,-115.245872
"-1",Mount Fernie Provincial Park,leisure-nature_reserve,0.2352631594,49.488607,-115.101664
"-1",Moyie Lake Provincial Park,leisure-nature_reserve,0.1900000009,49.371897,-115.838086
"-1",Premier Lake Provincial Park,leisure-nature_reserve,0.1233333337,49.911407,-115.642979
"-1",Ryan Provincial Park,leisure-nature_reserve,0.1724999994,49.135379,-116.031285
"-1",Thunder Hill Provincial Park,leisure-nature_reserve,0.1133333333,50.167210,-115.854607
"-1",Whiteswan Lake Provincial Park,leisure-nature_reserve,0.1082424237,50.144666,-115.488038
"-1",Windemere Lake Provincial Park,leisure-nature_reserve,0.1281249997,50.421486,-115.967127
"-1",Beaver Creek Provincial Park,leisure-nature_reserve,0.7333333343,49.061790,-117.611287
"-1",Bugaboo Provincial Park,leisure-nature_reserve,0.1638278929,50.794489,-116.807922
"-1",Gilpin Grasslands Provincial Park,leisure-nature_reserve,0.1412500010,49.018087,-118.299494
"-1",Gladstone Provincial Park,leisure-nature_reserve,0.1111004273,49.269382,-118.268810
"-1",Johnstone Creek Provincial Park,leisure-nature_reserve,0.1266666651,49.046924,-119.049100
"-1",Kettle River Recreation Area,leisure-nature_reserve,0.1300000012,49.109046,-118.984075
"-1",Kianuko Provincial Park,leisure-nature_reserve,0.1591736531,49.421698,-116.456417
"-1",Kootenay Lake Provincial Park - Campbell Bay Site,leisure-nature_reserve,0.1500000010,49.954440,-116.865316
"-1",Kootenay Lake Provincial Park - Coffee Creek Site,leisure-nature_reserve,0.0933333312,49.693753,-116.913606
"-1",Kootenay Lake Provincial Park - Midge Creek Site,leisure-nature_reserve,0.1033333311,49.373225,-116.809705
"-1",Lockhart Beach Provincial Park,leisure-nature_reserve,0.1299999952,49.508727,-116.787289
"-1",Lockhart Creek Provincial Park,leisure-nature_reserve,0.1335687730,49.497320,-116.705017
"-1",Nancy Greene Provincial Park,leisure-nature_reserve,0.1271428562,49.251846,-117.944351
"-1",Pilot Bay Provincial Park,leisure-nature_reserve,0.1538461558,49.637288,-116.863783
"-1",Purcell Wilderness Conservancy Corridor Protected Area,leisure-nature_reserve,0.1140425530,50.139996,-116.240858
"-1",Purcell Wilderness Conservancy Provincial Park,leisure-nature_reserve,0.1390612608,50.118066,-116.495693
"-1",St. Mary's Alpine Provincial Park,leisure-nature_reserve,0.1402384502,49.877076,-116.347651
"-1",Stagleap Provincial Park,leisure-nature_reserve,0.4139285711,49.058586,-117.047799
"-1",Arrow Lakes Provincial Park - Eagle Site,leisure-nature_reserve,0.8766666452,49.774006,-118.140735
"-1",Evans Lake Ecological Reserve,leisure-nature_reserve,0.1939999998,49.859559,-117.698752
"-1",Goat Range Provincial Park,leisure-nature_reserve,0.1550442785,50.288121,-117.270199
"-1",Grohman Narrows Provincial Park,leisure-nature_reserve,2.0153854377,49.495696,-117.344257
"-1",Inonoaklin Provincial Park,leisure-nature_reserve,0.4592133659,49.777401,-118.139025
"-1",Kokanee Creek Provincial Park,leisure-nature_reserve,0.5347058896,49.606913,-117.121673
"-1",McDonald Creek Provincial Park,leisure-nature_reserve,0.0739393938,50.142315,-117.813321
"-1",Rosebery Provincial Park,leisure-nature_reserve,0.1709656545,50.035306,-117.403730
"-1",Valhalla Provincial Park,leisure-nature_reserve,0.1584091545,49.873542,-117.568090
"-1",Browne Lake Ecological Reserve,leisure-nature_reserve,0.1822222206,49.822648,-119.198895
"-1",Browne Lake Provincial Park,leisure-nature_reserve,0.1570822033,49.823435,-119.188664
"-1",Campbell-Brown (Kalamalka Lake) Ecological Reserve,leisure-nature_reserve,0.5416666691,50.158038,-119.374700
"-1",Cougar Canyon Ecological Reserve,leisure-nature_reserve,0.1767500011,50.152696,-119.320270
"-1",Eagle River Provincial Park,leisure-nature_reserve,0.4436363643,50.974061,-118.672918
"-1",Enderby Cliffs Provincial Park,leisure-nature_reserve,0.1646987950,50.598766,-119.071761
"-1",Kalamalka Lake Provincial Park,leisure-nature_reserve,0.2655744685,50.177375,-119.272802
"-1",Kekuli Bay Provincial Park,leisure-nature_reserve,0.5375000089,50.184374,-119.338959
"-1",Kingfisher Creek Ecological Reserve,leisure-nature_reserve,0.1642201841,50.799272,-118.776229
"-1",Kingfisher Creek Provincial Park,leisure-nature_reserve,0.1324999998,50.796157,-118.811612
"-1",Mabel Lake Provincial Park,leisure-nature_reserve,0.1473333319,50.458787,-118.725074
"-1",Mara Meadows Ecological Reserve,leisure-nature_reserve,0.2466666661,50.689984,-119.113366
"-1",Mara Meadows Provincial Park,leisure-nature_reserve,0.2373333325,50.699043,-119.104798
"-1",Monashee Provincial Park,leisure-nature_reserve,0.1349576271,50.542700,-118.264897
"-1",Mount Griffin Ecological Reserve,leisure-nature_reserve,0.0729213489,50.894255,-118.553579
"-1",Mount Griffin Provincial Park,leisure-nature_reserve,0.1178030305,50.902289,-118.558182
"-1",Silver Star Provincial Park,leisure-nature_reserve,0.1644878054,50.376859,-119.083308
"-1",Truman Dagnus Locheed Provincial Park,leisure-nature_reserve,0.8563034427,50.220786,-119.372701
"-1",Upper Violet Creek Provincial Park,leisure-nature_reserve,0.2180000000,50.721184,-119.138070
"-1",Victor Lake Provincial Park,leisure-nature_reserve,0.0500000007,50.955898,-118.402439
"-1",Wap Creek Provincial Park,leisure-nature_reserve,0.1288461545,50.735545,-118.589803
"-1",Yard Creek Provincial Park,leisure-nature_reserve,0.7059999866,50.901435,-118.820744
"-1",Anstey Hunakwa Provincial Park,leisure-nature_reserve,0.0574556216,51.150156,-118.914707
"-1",Cinnemousun Narrows Provincial Park,leisure-nature_reserve,0.0834146341,50.992645,-119.014572
"-1",Shuswap Lake Marine Provincial Park - Anstey View Site,leisure-nature_reserve,0.0731998659,51.033926,-118.988747
"-1",Shuswap Lake Marine Provincial Park - Marble Point Site,leisure-nature_reserve,0.1218181808,50.915771,-119.030006
"-1",Shuswap Lake Marine Provincial Park - Nielsen Beach Site,leisure-nature_reserve,0.0399999991,51.023590,-119.030129
"-1",Shuswap Lake Marine Provincial Park - St. Ives Site,leisure-nature_reserve,0.1597091459,50.984509,-119.094022
"-1",Silver Beach Provincial Park,leisure-nature_reserve,0.0000000000,51.239720,-118.957437
"-1",Upper Seymour River Provincial Park,leisure-nature_reserve,0.0000000000,51.610168,-118.918152
"-1",White Lake Provincial Park,leisure-nature_reserve,0.1550000016,50.888478,-119.244741
"-1",Anarchist Protected Area,leisure-nature_reserve,0.2571428561,49.058547,-119.420413
"-1",Bear Creek Provincial Park,leisure-nature_reserve,0.4230769208,49.929515,-119.519794
"-1",Bromley Rock Provincial Park,leisure-nature_reserve,0.0777777765,49.414925,-120.261902
"-1",Cathedral Protected Area,leisure-nature_reserve,0.0732142855,49.140132,-120.117918
"-1",Cathedral Provincial Park,leisure-nature_reserve,0.1546675192,49.071498,-120.172329
"-1",Darke Lake Provincial Park,leisure-nature_reserve,0.1102702699,49.722287,-119.858306
"-1",Mahoney Lake Ecological Reserve,leisure-nature_reserve,0.0499999998,49.289549,-119.581552
"-1",Myra-Bellevue Provincial Park,leisure-nature_reserve,0.2513577980,49.751604,-119.373623
"-1",Okanagan Lake Provincial Park,leisure-nature_reserve,0.9150000066,49.685600,-119.726172
"-1",Snowy Protected Area,leisure-nature_reserve,0.1246742672,49.064616,-119.915190
"-1",South Okanogan Grasslands Protected Area,leisure-nature_reserve,0.1698736177,49.077011,-119.627944
"-1",Stemwinder Provincial Park,leisure-nature_reserve,0.0531055859,49.370780,-120.136285
"-1",Sun-Oka Beach Provincial Park,leisure-nature_reserve,2.5000000000,49.564950,-119.633381
"-1",Vaseux Protected Area,leisure-nature_reserve,0.1821854317,49.268426,-119.474555
"-1",White Lake Grasslands Protected Area,leisure-nature_reserve,0.1343333333,49.293918,-119.590462
"-1",Chilliwack Lake Provincial Park,leisure-nature_reserve,0.1731231230,49.072264,-121.436701
"-1",Chilliwack River Ecological Reserve,leisure-nature_reserve,0.0737500000,49.006103,-121.412634
"-1",Coquihalla Canyon Provincial Park,leisure-nature_reserve,1.0580000192,49.370884,-121.370800
"-1",Coquihalla River Provincial Park,leisure-nature_reserve,1.9528571367,49.461697,-121.260770
"-1",Coquihalla Summit Recreation Area,leisure-nature_reserve,0.7197387120,49.599707,-121.089098
"-1",Cultus Lake Provincial Park,leisure-nature_reserve,0.3644318175,49.033811,-121.974631
"-1",E.C. Manning Provincial Park,leisure-nature_reserve,0.1575615099,49.141903,-120.866017
"-1",Ross Lake Ecological Reserve,leisure-nature_reserve,0.1266666694,49.003832,-121.050562
"-1",Sasquatch Provincial Park,leisure-nature_reserve,0.1073404252,49.354288,-121.701404
"-1",Skagit River Forest Ecological Reserve,leisure-nature_reserve,0.1760000020,49.101390,-121.123900
"-1",Skagit River Rhododendrons Ecological Reserve,leisure-nature_reserve,0.3149999927,49.072844,-121.136044
"-1",Skagit Valley Provincial Park,leisure-nature_reserve,0.1828032620,49.092508,-121.138509
"-1",Widgeon Valley National Wildlife Area,leisure-nature_reserve,0.2977083322,49.352010,-122.644014
"-1",Buntzen Lake Recreation Area,leisure-nature_reserve,0.7254545418,49.347337,-122.858953
"-1",Golden Ears Provincial Park,leisure-nature_reserve,0.2178217144,49.509928,-122.448542
"-1",Indian Arm Provincial Park,leisure-nature_reserve,0.3460167733,49.431079,-122.852030
"-1",Lower Seymour Conservation Reserve,leisure-nature_reserve,0.8381954885,49.391374,-122.983006
"-1",Mount Seymour Provincial Park,leisure-nature_reserve,0.6657707492,49.392452,-122.926152
"-1",Pinecone Burke Provincial Park,leisure-nature_reserve,0.2613852496,49.526385,-122.721450
